[{"country_iso": "ITA", "city_id": 2405, "city": "Turin", "pop_total": 1020726.67696924, "mass_total": 249566336.580845, "log_pop": 6.008909, "log_mass": 8.397186, "log_pop_c": 0.933631, "log_mass_c": 0.877783, "lat": 45.0712810159846, "lon": 7.6507633247331}, {"country_iso": "ITA", "city_id": 2437, "city": "Sanremo", "pop_total": 56871.9060233445, "mass_total": 26768947.4706626, "log_pop": 4.754898, "log_mass": 7.427631, "log_pop_c": -0.320381, "log_mass_c": -0.091772, "lat": 43.8235895410711, "lon": 7.8023105702661}, {"country_iso": "ITA", "city_id": 2501, "city": "Savona", "pop_total": 61417.0728640149, "mass_total": 18054858.5814471, "log_pop": 4.788289, "log_mass": 7.256594, "log_pop_c": -0.28699, "log_mass_c": -0.262809, "lat": 44.2997683476892, "lon": 8.47251787197298}, {"country_iso": "ITA", "city_id": 2504, "city": "Novara", "pop_total": 73800.976350675, "mass_total": 22274109.4393857, "log_pop": 4.868062, "log_mass": 7.3478, "log_pop_c": -0.207217, "log_mass_c": -0.171603, "lat": 45.4445261920895, "lon": 8.62401027692468}, {"country_iso": "ITA", "city_id": 2507, "city": "Alessandria", "pop_total": 51836.3632452657, "mass_total": 13014216.8354808, "log_pop": 4.714635, "log_mass": 7.114418, "log_pop_c": -0.360644, "log_mass_c": -0.404985, "lat": 44.9082278735575, "lon": 8.61191609746585}, {"country_iso": "ITA", "city_id": 2519, "city": "Gallarate", "pop_total": 103168.727791039, "mass_total": 39063245.193807, "log_pop": 5.013548, "log_mass": 7.591768, "log_pop_c": -0.061731, "log_mass_c": 0.072365, "lat": 45.6753482562828, "lon": 8.80129871528014}, {"country_iso": "ITA", "city_id": 2521, "city": "Varese", "pop_total": 62367.8023069963, "mass_total": 18900220.5687387, "log_pop": 4.79496, "log_mass": 7.276467, "log_pop_c": -0.280318, "log_mass_c": -0.242937, "lat": 45.8274846214051, "lon": 8.8302173717006}, {"country_iso": "ITA", "city_id": 2529, "city": "Busto Arsizio", "pop_total": 231847.587144931, "mass_total": 88392668.4106132, "log_pop": 5.365203, "log_mass": 7.946416, "log_pop_c": 0.289924, "log_mass_c": 0.427013, "lat": 45.6063451770575, "lon": 8.90245868071065}, {"country_iso": "ITA", "city_id": 2535, "city": "Genoa", "pop_total": 435519.395010501, "mass_total": 85182242.3165752, "log_pop": 5.639008, "log_mass": 7.930349, "log_pop_c": 0.563729, "log_mass_c": 0.410946, "lat": 44.4184468925502, "lon": 8.91725994842035}, {"country_iso": "ITA", "city_id": 2556, "city": "Sassari", "pop_total": 71773.4504201167, "mass_total": 18108728.6730035, "log_pop": 4.855964, "log_mass": 7.257888, "log_pop_c": -0.219315, "log_mass_c": -0.261515, "lat": 40.7282537185774, "lon": 8.55687662612682}, {"country_iso": "ITA", "city_id": 2559, "city": "Milan", "pop_total": 2515965.38757869, "mass_total": 713229716.873298, "log_pop": 6.400705, "log_mass": 8.853229, "log_pop_c": 1.325426, "log_mass_c": 1.333826, "lat": 45.544694008499, "lon": 9.1899547569517}, {"country_iso": "ITA", "city_id": 2560, "city": "Como", "pop_total": 70042.7112168681, "mass_total": 26636904.6007203, "log_pop": 4.845363, "log_mass": 7.425484, "log_pop_c": -0.229916, "log_mass_c": -0.09392, "lat": 45.7831475345473, "lon": 9.07300527533262}, {"country_iso": "ITA", "city_id": 2631, "city": "Bergamo", "pop_total": 285890.021512703, "mass_total": 104139174.956604, "log_pop": 5.456199, "log_mass": 8.017614, "log_pop_c": 0.38092, "log_mass_c": 0.498211, "lat": 45.6909499067017, "lon": 9.63672030785515}, {"country_iso": "ITA", "city_id": 2653, "city": "Cagliari", "pop_total": 207656.658096749, "mass_total": 47504877.8593072, "log_pop": 5.317346, "log_mass": 7.676738, "log_pop_c": 0.242067, "log_mass_c": 0.157335, "lat": 39.2326918721022, "lon": 9.14329551523068}, {"country_iso": "ITA", "city_id": 2656, "city": "Piacenza", "pop_total": 73294.3870118795, "mass_total": 25330694.1094917, "log_pop": 4.865071, "log_mass": 7.403647, "log_pop_c": -0.210208, "log_mass_c": -0.115756, "lat": 45.0436421930839, "lon": 9.69530573369611}, {"country_iso": "ITA", "city_id": 2684, "city": "La Spezia", "pop_total": 68836.2040366672, "mass_total": 19882523.2049519, "log_pop": 4.837817, "log_mass": 7.298471, "log_pop_c": -0.237462, "log_mass_c": -0.220932, "lat": 44.1096801235538, "lon": 9.83666650580218}, {"country_iso": "ITA", "city_id": 2706, "city": "Brescia", "pop_total": 158446.938224671, "mass_total": 58260735.5598624, "log_pop": 5.199884, "log_mass": 7.765376, "log_pop_c": 0.124605, "log_mass_c": 0.245973, "lat": 45.5473411957287, "lon": 10.2151633438271}, {"country_iso": "ITA", "city_id": 2710, "city": "Massa", "pop_total": 85208.2903654438, "mass_total": 35878683.4974609, "log_pop": 4.930482, "log_mass": 7.554836, "log_pop_c": -0.144797, "log_mass_c": 0.035433, "lat": 44.0401957669687, "lon": 10.0866448402694}, {"country_iso": "ITA", "city_id": 2725, "city": "Parma", "pop_total": 113723.648012745, "mass_total": 31135347.6591455, "log_pop": 5.055851, "log_mass": 7.493254, "log_pop_c": -0.019428, "log_mass_c": -0.02615, "lat": 44.7975455360189, "lon": 10.3320093726677}, {"country_iso": "ITA", "city_id": 2738, "city": "Livorno", "pop_total": 123826.543860382, "mass_total": 37107321.5992678, "log_pop": 5.092814, "log_mass": 7.56946, "log_pop_c": 0.017535, "log_mass_c": 0.050056, "lat": 43.5456052103689, "lon": 10.3204248152589}, {"country_iso": "ITA", "city_id": 2744, "city": "Pisa", "pop_total": 51557.0390474507, "mass_total": 16397833.5193218, "log_pop": 4.712288, "log_mass": 7.214786, "log_pop_c": -0.362991, "log_mass_c": -0.304617, "lat": 43.7128206728591, "lon": 10.4010591147211}, {"country_iso": "ITA", "city_id": 2750, "city": "Reggio nell'Emilia", "pop_total": 83825.2720284829, "mass_total": 21694897.5776175, "log_pop": 4.923375, "log_mass": 7.336358, "log_pop_c": -0.151904, "log_mass_c": -0.183046, "lat": 44.6923294144087, "lon": 10.6262214840624}, {"country_iso": "ITA", "city_id": 2773, "city": "Verona", "pop_total": 170558.188904544, "mass_total": 50799418.6950542, "log_pop": 5.231873, "log_mass": 7.705859, "log_pop_c": 0.156594, "log_mass_c": 0.186455, "lat": 45.4342846240447, "lon": 10.9884557521414}, {"country_iso": "ITA", "city_id": 2776, "city": "Modena", "pop_total": 123950.880497487, "mass_total": 34350813.0615673, "log_pop": 5.09325, "log_mass": 7.535937, "log_pop_c": 0.017971, "log_mass_c": 0.016534, "lat": 44.6429761158195, "lon": 10.9266056691307}, {"country_iso": "ITA", "city_id": 2779, "city": "Trento", "pop_total": 61911.2025244526, "mass_total": 22190310.6979507, "log_pop": 4.791769, "log_mass": 7.346163, "log_pop_c": -0.28351, "log_mass_c": -0.17324, "lat": 46.0750164326518, "lon": 11.1213028096692}, {"country_iso": "ITA", "city_id": 2791, "city": "Bolzano - Bozen", "pop_total": 80030.6914430786, "mass_total": 18746588.359208, "log_pop": 4.903257, "log_mass": 7.272922, "log_pop_c": -0.172022, "log_mass_c": -0.246481, "lat": 46.4877237068641, "lon": 11.3365118468775}, {"country_iso": "ITA", "city_id": 2794, "city": "Prato", "pop_total": 190409.396413429, "mass_total": 58946964.561287, "log_pop": 5.279688, "log_mass": 7.770461, "log_pop_c": 0.20441, "log_mass_c": 0.251058, "lat": 43.8690569838423, "lon": 11.1069359511402}, {"country_iso": "ITA", "city_id": 2801, "city": "Florence", "pop_total": 350081.9324249, "mass_total": 79359946.4490134, "log_pop": 5.54417, "log_mass": 7.899601, "log_pop_c": 0.468891, "log_mass_c": 0.380198, "lat": 43.7839882991824, "lon": 11.2137609542734}, {"country_iso": "ITA", "city_id": 2802, "city": "Bologna", "pop_total": 344127.395863635, "mass_total": 83473862.767225, "log_pop": 5.536719, "log_mass": 7.921551, "log_pop_c": 0.46144, "log_mass_c": 0.402147, "lat": 44.4937236353785, "lon": 11.3290044793081}, {"country_iso": "ITA", "city_id": 2812, "city": "Vicenza", "pop_total": 77130.395455071, "mass_total": 26533507.2657511, "log_pop": 4.887226, "log_mass": 7.423795, "log_pop_c": -0.188053, "log_mass_c": -0.095609, "lat": 45.5452624253079, "lon": 11.531669460312}, {"country_iso": "ITA", "city_id": 2827, "city": "Ferrara", "pop_total": 72201.0921236245, "mass_total": 26600987.5810919, "log_pop": 4.858544, "log_mass": 7.424898, "log_pop_c": -0.216735, "log_mass_c": -0.094506, "lat": 44.8457326216974, "lon": 11.6142169419502}, {"country_iso": "ITA", "city_id": 2845, "city": "Padua", "pop_total": 177864.992491802, "mass_total": 75586216.9790201, "log_pop": 5.25009, "log_mass": 7.878443, "log_pop_c": 0.174812, "log_mass_c": 0.359039, "lat": 45.4112201252339, "lon": 11.9085764545095}, {"country_iso": "ITA", "city_id": 2860, "city": "Mestre", "pop_total": 131537.283497975, "mass_total": 60950489.6131467, "log_pop": 5.119049, "log_mass": 7.784977, "log_pop_c": 0.04377, "log_mass_c": 0.265574, "lat": 45.4743479603725, "lon": 12.2343247754335}, {"country_iso": "ITA", "city_id": 2862, "city": "Treviso", "pop_total": 66725.6542168794, "mass_total": 24591179.6783352, "log_pop": 4.824293, "log_mass": 7.390779, "log_pop_c": -0.250986, "log_mass_c": -0.128624, "lat": 45.6674844892509, "lon": 12.2404203014613}, {"country_iso": "ITA", "city_id": 2863, "city": "Forl\u00ec", "pop_total": 65936.9615148981, "mass_total": 17581246.1264652, "log_pop": 4.819129, "log_mass": 7.24505, "log_pop_c": -0.25615, "log_mass_c": -0.274354, "lat": 44.2153010569731, "lon": 12.0520436875537}, {"country_iso": "ITA", "city_id": 2865, "city": "Venice", "pop_total": 61991.5308254838, "mass_total": 17421862.9727794, "log_pop": 4.792332, "log_mass": 7.241095, "log_pop_c": -0.282947, "log_mass_c": -0.278309, "lat": 45.4241394646536, "lon": 12.3453062274542}, {"country_iso": "ITA", "city_id": 2868, "city": "Ravenna", "pop_total": 67502.0213815415, "mass_total": 17362491.2996259, "log_pop": 4.829317, "log_mass": 7.239612, "log_pop_c": -0.245962, "log_mass_c": -0.279791, "lat": 44.4126934588621, "lon": 12.1987089946049}, {"country_iso": "ITA", "city_id": 2881, "city": "Pordenone", "pop_total": 55460.1148409528, "mass_total": 23434824.2984851, "log_pop": 4.743981, "log_mass": 7.369862, "log_pop_c": -0.331298, "log_mass_c": -0.149542, "lat": 45.9611624554763, "lon": 12.6594528148128}, {"country_iso": "ITA", "city_id": 2889, "city": "Rimini", "pop_total": 97446.9558292431, "mass_total": 31104683.9854095, "log_pop": 4.988768, "log_mass": 7.492826, "log_pop_c": -0.086511, "log_mass_c": -0.026578, "lat": 44.0632756999418, "lon": 12.5615042248262}, {"country_iso": "ITA", "city_id": 2892, "city": "Lido di Ostia", "pop_total": 65760.1411748056, "mass_total": 11143426.5308532, "log_pop": 4.817963, "log_mass": 7.047019, "log_pop_c": -0.257316, "log_mass_c": -0.472385, "lat": 41.7333932069877, "lon": 12.2788066321095}, {"country_iso": "ITA", "city_id": 2895, "city": "Acilia", "pop_total": 97314.4365120448, "mass_total": 25997606.3790414, "log_pop": 4.988177, "log_mass": 7.414933, "log_pop_c": -0.087102, "log_mass_c": -0.10447, "lat": 41.7687311438055, "lon": 12.3544959479854}, {"country_iso": "ITA", "city_id": 2897, "city": "Rome", "pop_total": 1951744.28051479, "mass_total": 468100157.324854, "log_pop": 6.290423, "log_mass": 8.670339, "log_pop_c": 1.215144, "log_mass_c": 1.150935, "lat": 41.8971932170728, "lon": 12.5323185850922}, {"country_iso": "ITA", "city_id": 2905, "city": "Terni", "pop_total": 68395.2023775828, "mass_total": 21107381.2275246, "log_pop": 4.835026, "log_mass": 7.324434, "log_pop_c": -0.240253, "log_mass_c": -0.194969, "lat": 42.566928522312, "lon": 12.632707641572}, {"country_iso": "ITA", "city_id": 2908, "city": "Udine", "pop_total": 78001.5949831323, "mass_total": 32195860.5405647, "log_pop": 4.892103, "log_mass": 7.5078, "log_pop_c": -0.183175, "log_mass_c": -0.011603, "lat": 46.0753990625445, "lon": 13.2295336274554}, {"country_iso": "ITA", "city_id": 2909, "city": "Pesaro", "pop_total": 55527.204291148, "mass_total": 12328964.8238864, "log_pop": 4.744506, "log_mass": 7.090927, "log_pop_c": -0.330773, "log_mass_c": -0.428477, "lat": 43.9043834217803, "lon": 12.9083732693208}, {"country_iso": "ITA", "city_id": 2910, "city": "Anzio", "pop_total": 64524.1616123435, "mass_total": 20780286.0230752, "log_pop": 4.809722, "log_mass": 7.317652, "log_pop_c": -0.265556, "log_mass_c": -0.201752, "lat": 41.4748317960524, "lon": 12.6263992519497}, {"country_iso": "ITA", "city_id": 2912, "city": "Tivoli", "pop_total": 58905.5680471438, "mass_total": 14312658.7657769, "log_pop": 4.770156, "log_mass": 7.15572, "log_pop_c": -0.305123, "log_mass_c": -0.363683, "lat": 41.9595254611431, "lon": 12.7559507134391}, {"country_iso": "ITA", "city_id": 2925, "city": "Latina", "pop_total": 59517.5100638349, "mass_total": 13754572.4536797, "log_pop": 4.774645, "log_mass": 7.138447, "log_pop_c": -0.300634, "log_mass_c": -0.380956, "lat": 41.4615399308419, "lon": 12.8963725596157}, {"country_iso": "ITA", "city_id": 2926, "city": "Trapani", "pop_total": 64116.0486814521, "mass_total": 14741269.9003384, "log_pop": 4.806967, "log_mass": 7.168535, "log_pop_c": -0.268312, "log_mass_c": -0.350869, "lat": 38.0190725398711, "lon": 12.5341089063624}, {"country_iso": "ITA", "city_id": 2933, "city": "Triest", "pop_total": 150691.659180282, "mass_total": 45176164.4600042, "log_pop": 5.178089, "log_mass": 7.654909, "log_pop_c": 0.10281, "log_mass_c": 0.135506, "lat": 45.634902628407, "lon": 13.7854188891112}, {"country_iso": "ITA", "city_id": 2935, "city": "Ancona", "pop_total": 59589.5936213403, "mass_total": 18587467.3814534, "log_pop": 4.77517, "log_mass": 7.26922, "log_pop_c": -0.300108, "log_mass_c": -0.250183, "lat": 43.6023551301551, "lon": 13.5097769637389}, {"country_iso": "ITA", "city_id": 2959, "city": "Palermo", "pop_total": 556363.649626011, "mass_total": 98666172.3781806, "log_pop": 5.745359, "log_mass": 7.994168, "log_pop_c": 0.67008, "log_mass_c": 0.474765, "lat": 38.1362648766754, "lon": 13.3378769685957}, {"country_iso": "ITA", "city_id": 2976, "city": "Pescara", "pop_total": 175568.034444156, "mass_total": 52475374.7020358, "log_pop": 5.244445, "log_mass": 7.719956, "log_pop_c": 0.169167, "log_mass_c": 0.200552, "lat": 42.4694821229862, "lon": 14.1973829476512}, {"country_iso": "ITA", "city_id": 2980, "city": "Naples", "pop_total": 2646587.49416946, "mass_total": 642961020.090968, "log_pop": 6.422686, "log_mass": 8.808185, "log_pop_c": 1.347407, "log_mass_c": 1.288781, "lat": 40.8653252559216, "lon": 14.3362336105681}, {"country_iso": "ITA", "city_id": 2991, "city": "Caserta", "pop_total": 200635.78888374, "mass_total": 55780600.1269924, "log_pop": 5.302408, "log_mass": 7.746483, "log_pop_c": 0.22713, "log_mass_c": 0.22708, "lat": 41.0638682808198, "lon": 14.3072725444984}, {"country_iso": "ITA", "city_id": 3014, "city": "Gela", "pop_total": 60845.7310181984, "mass_total": 14689097.1314856, "log_pop": 4.78423, "log_mass": 7.166995, "log_pop_c": -0.291049, "log_mass_c": -0.352408, "lat": 37.0666127603999, "lon": 14.2472304030876}, {"country_iso": "ITA", "city_id": 3021, "city": "Salerno", "pop_total": 125590.985873518, "mass_total": 28785293.0113039, "log_pop": 5.098958, "log_mass": 7.459171, "log_pop_c": 0.02368, "log_mass_c": -0.060233, "lat": 40.6813142220699, "lon": 14.7924573715274}, {"country_iso": "ITA", "city_id": 3049, "city": "Foggia", "pop_total": 112810.176677623, "mass_total": 19944337.1336396, "log_pop": 5.052348, "log_mass": 7.29982, "log_pop_c": -0.022931, "log_mass_c": -0.219584, "lat": 41.4581336365855, "lon": 15.5477718105544}, {"country_iso": "ITA", "city_id": 3051, "city": "Catania", "pop_total": 359393.134369286, "mass_total": 90917901.6937384, "log_pop": 5.55557, "log_mass": 7.958649, "log_pop_c": 0.480291, "log_mass_c": 0.439246, "lat": 37.534487063365, "lon": 15.0715308525104}, {"country_iso": "ITA", "city_id": 3056, "city": "Acireale", "pop_total": 83677.4902309766, "mass_total": 19648741.9275302, "log_pop": 4.922609, "log_mass": 7.293335, "log_pop_c": -0.15267, "log_mass_c": -0.226069, "lat": 37.5988101887417, "lon": 15.1308468621887}, {"country_iso": "ITA", "city_id": 3074, "city": "Syracuse", "pop_total": 75973.9050907596, "mass_total": 17444121.8361344, "log_pop": 4.880664, "log_mass": 7.241649, "log_pop_c": -0.194614, "log_mass_c": -0.277754, "lat": 37.0820628922992, "lon": 15.2777052293767}, {"country_iso": "ITA", "city_id": 3083, "city": "Messina", "pop_total": 161543.194714468, "mass_total": 29521483.1435801, "log_pop": 5.208289, "log_mass": 7.470138, "log_pop_c": 0.13301, "log_mass_c": -0.049265, "lat": 38.1992812938255, "lon": 15.5585850225546}, {"country_iso": "ITA", "city_id": 3093, "city": "Reggio Calabria", "pop_total": 108014.357502158, "mass_total": 26965058.4547171, "log_pop": 5.033481, "log_mass": 7.430801, "log_pop_c": -0.041797, "log_mass_c": -0.088602, "lat": 38.1062618205162, "lon": 15.6503616170745}, {"country_iso": "ITA", "city_id": 3102, "city": "Barletta", "pop_total": 80157.9431959359, "mass_total": 13839855.3182403, "log_pop": 4.903947, "log_mass": 7.141132, "log_pop_c": -0.171332, "log_mass_c": -0.378272, "lat": 41.3163747547363, "lon": 16.2825018122306}, {"country_iso": "ITA", "city_id": 3107, "city": "Andria", "pop_total": 80030.9273384153, "mass_total": 12193912.1938784, "log_pop": 4.903258, "log_mass": 7.086143, "log_pop_c": -0.172021, "log_mass_c": -0.43326, "lat": 41.2285212905622, "lon": 16.2962940069576}, {"country_iso": "ITA", "city_id": 3118, "city": "Cosenza", "pop_total": 67465.8658718514, "mass_total": 17257756.5004676, "log_pop": 4.829084, "log_mass": 7.236984, "log_pop_c": -0.246195, "log_mass_c": -0.282419, "lat": 39.3136797792036, "lon": 16.2416368325038}, {"country_iso": "ITA", "city_id": 3124, "city": "Altamura", "pop_total": 57754.1175908, "mass_total": 7578973.72141542, "log_pop": 4.761583, "log_mass": 6.87961, "log_pop_c": -0.313696, "log_mass_c": -0.639793, "lat": 40.8248659452967, "lon": 16.5489566772293}, {"country_iso": "ITA", "city_id": 3135, "city": "Bari", "pop_total": 257413.31448706, "mass_total": 72424762.2411911, "log_pop": 5.410631, "log_mass": 7.859887, "log_pop_c": 0.335352, "log_mass_c": 0.340484, "lat": 41.1068569530496, "lon": 16.8562532223477}, {"country_iso": "ITA", "city_id": 3167, "city": "Taranto", "pop_total": 115466.123240561, "mass_total": 55522622.5179524, "log_pop": 5.062455, "log_mass": 7.74447, "log_pop_c": -0.012824, "log_mass_c": 0.225067, "lat": 40.4870704752626, "lon": 17.2171511539768}, {"country_iso": "ITA", "city_id": 3208, "city": "Brindisi", "pop_total": 61039.7741327089, "mass_total": 15328102.2277373, "log_pop": 4.785613, "log_mass": 7.185488, "log_pop_c": -0.289666, "log_mass_c": -0.333915, "lat": 40.6359445801248, "lon": 17.9495355820867}, {"country_iso": "ITA", "city_id": 3218, "city": "Lecce", "pop_total": 66086.1539892671, "mass_total": 19726199.6819159, "log_pop": 4.82011, "log_mass": 7.295043, "log_pop_c": -0.255168, "log_mass_c": -0.22436, "lat": 40.3531422107919, "lon": 18.1751675514766}]