[{"country_iso": "ARG", "city_id": 962, "city": "San Juan", "pop_total": 159980.298046654, "mass_total": 41677497.1179848, "log_pop": 5.204067, "log_mass": 7.619902, "log_pop_c": -0.091543, "log_mass_c": -0.070079, "lat": -31.5366761280512, "lon": -68.54205840929}, {"country_iso": "ARG", "city_id": 966, "city": "Mendoza", "pop_total": 400387.482751564, "mass_total": 103847049.779717, "log_pop": 5.60248, "log_mass": 8.016394, "log_pop_c": 0.306871, "log_mass_c": 0.326414, "lat": -32.9062740245766, "lon": -68.8141579659578}, {"country_iso": "ARG", "city_id": 967, "city": "San Salvador de Jujuy", "pop_total": 71827.7385988236, "mass_total": 12285477.2866179, "log_pop": 4.856292, "log_mass": 7.089392, "log_pop_c": -0.439317, "log_mass_c": -0.600589, "lat": -24.1906217289155, "lon": -65.2954567189771}, {"country_iso": "ARG", "city_id": 969, "city": "Salta", "pop_total": 184971.473978104, "mass_total": 35086602.575796, "log_pop": 5.267105, "log_mass": 7.545141, "log_pop_c": -0.028504, "log_mass_c": -0.144839, "lat": -24.8073018970845, "lon": -65.4154736802103}, {"country_iso": "ARG", "city_id": 974, "city": "La Rioja", "pop_total": 75358.9931583835, "mass_total": 21001692.9952841, "log_pop": 4.877135, "log_mass": 7.322254, "log_pop_c": -0.418474, "log_mass_c": -0.367726, "lat": -29.4171052104391, "lon": -66.8564588206758}, {"country_iso": "ARG", "city_id": 991, "city": "San Miguel de Tucum\u00e1n", "pop_total": 462338.663818503, "mass_total": 79980311.7881339, "log_pop": 5.66496, "log_mass": 7.902983, "log_pop_c": 0.369351, "log_mass_c": 0.213003, "lat": -26.8243066489693, "lon": -65.2138990346124}, {"country_iso": "ARG", "city_id": 996, "city": "San Fernando del Valle de Catamarca", "pop_total": 70045.7823681924, "mass_total": 16161758.3389656, "log_pop": 4.845382, "log_mass": 7.208489, "log_pop_c": -0.450227, "log_mass_c": -0.481492, "lat": -28.4647667722102, "lon": -65.7659549581385}, {"country_iso": "ARG", "city_id": 1010, "city": "Santiago del Estero", "pop_total": 171161.49261015, "mass_total": 40838156.4493308, "log_pop": 5.233406, "log_mass": 7.611066, "log_pop_c": -0.062203, "log_mass_c": -0.078914, "lat": -27.7779723107481, "lon": -64.2606608056779}, {"country_iso": "ARG", "city_id": 1014, "city": "San Luis", "pop_total": 76131.0689469506, "mass_total": 24909864.7165763, "log_pop": 4.881562, "log_mass": 7.396371, "log_pop_c": -0.414047, "log_mass_c": -0.293609, "lat": -33.2974810250896, "lon": -66.3332099902581}, {"country_iso": "ARG", "city_id": 1035, "city": "Cordoba", "pop_total": 817209.803104201, "mass_total": 185861659.99947, "log_pop": 5.912334, "log_mass": 8.26919, "log_pop_c": 0.616724, "log_mass_c": 0.579209, "lat": -31.395908732642, "lon": -64.2071561854854}, {"country_iso": "ARG", "city_id": 1036, "city": "Neuqu\u00e9n", "pop_total": 78528.6967134434, "mass_total": 28113588.6907977, "log_pop": 4.895028, "log_mass": 7.448916, "log_pop_c": -0.400581, "log_mass_c": -0.241064, "lat": -38.9542888249332, "lon": -68.0813715426143}, {"country_iso": "ARG", "city_id": 1060, "city": "Santa Fe", "pop_total": 150128.616849318, "mass_total": 44846239.013606, "log_pop": 5.176463, "log_mass": 7.651726, "log_pop_c": -0.119146, "log_mass_c": -0.038255, "lat": -31.6132033840359, "lon": -60.7077856927328}, {"country_iso": "ARG", "city_id": 1065, "city": "Resistencia", "pop_total": 215267.8406231, "mass_total": 47131419.7822915, "log_pop": 5.332979, "log_mass": 7.673311, "log_pop_c": 0.03737, "log_mass_c": -0.01667, "lat": -27.4572360163892, "lon": -58.9852566289213}, {"country_iso": "ARG", "city_id": 1067, "city": "Paran\u00e1", "pop_total": 99092.4878888972, "mass_total": 31391060.0975061, "log_pop": 4.996041, "log_mass": 7.496806, "log_pop_c": -0.299568, "log_mass_c": -0.193175, "lat": -31.7458241121093, "lon": -60.511382840349}, {"country_iso": "ARG", "city_id": 1069, "city": "Corrientes", "pop_total": 199380.228020956, "mass_total": 35702618.6738212, "log_pop": 5.299682, "log_mass": 7.5527, "log_pop_c": 0.004073, "log_mass_c": -0.13728, "lat": -27.4812950045009, "lon": -58.8086920989988}, {"country_iso": "ARG", "city_id": 1070, "city": "Rosario", "pop_total": 595406.194827057, "mass_total": 173974287.385734, "log_pop": 5.774813, "log_mass": 8.240485, "log_pop_c": 0.479204, "log_mass_c": 0.550505, "lat": -32.9196983658215, "lon": -60.6962972623266}, {"country_iso": "ARG", "city_id": 1073, "city": "Formosa", "pop_total": 89319.1268498514, "mass_total": 20669941.3023512, "log_pop": 4.950944, "log_mass": 7.315339, "log_pop_c": -0.344665, "log_mass_c": -0.374641, "lat": -26.1836586649655, "lon": -58.1832090619768}, {"country_iso": "ARG", "city_id": 1080, "city": "San Nicol\u00e1s de los Arroyos", "pop_total": 59253.2728667147, "mass_total": 17763321.3938311, "log_pop": 4.772712, "log_mass": 7.249524, "log_pop_c": -0.522897, "log_mass_c": -0.440456, "lat": -33.343151590239, "lon": -60.2170239491674}, {"country_iso": "ARG", "city_id": 1083, "city": "Bah\u00eda Blanca", "pop_total": 136467.033339736, "mass_total": 46242301.7615857, "log_pop": 5.135028, "log_mass": 7.665039, "log_pop_c": -0.160581, "log_mass_c": -0.024941, "lat": -38.7359063421238, "lon": -62.2701774185937}, {"country_iso": "ARG", "city_id": 1089, "city": "Concordia", "pop_total": 110065.830323545, "mass_total": 28804274.3709563, "log_pop": 5.041653, "log_mass": 7.459457, "log_pop_c": -0.253957, "log_mass_c": -0.230524, "lat": -31.384487179619, "lon": -57.9959724684497}, {"country_iso": "ARG", "city_id": 1105, "city": "Buenos Aires", "pop_total": 9998638.8222237, "mass_total": 1647633612.53906, "log_pop": 6.999941, "log_mass": 9.216861, "log_pop_c": 1.704332, "log_mass_c": 1.52688, "lat": -34.6507358035863, "lon": -58.5390457305863}, {"country_iso": "ARG", "city_id": 1107, "city": "Posadas", "pop_total": 173060.916659103, "mass_total": 40253997.9964972, "log_pop": 5.238199, "log_mass": 7.604809, "log_pop_c": -0.05741, "log_mass_c": -0.085172, "lat": -27.4040565191803, "lon": -55.9110482744136}, {"country_iso": "ARG", "city_id": 1117, "city": "La Plata", "pop_total": 390138.017026603, "mass_total": 120420860.617769, "log_pop": 5.591218, "log_mass": 8.080702, "log_pop_c": 0.295609, "log_mass_c": 0.390721, "lat": -34.9104875693004, "lon": -57.9621310664435}, {"country_iso": "ARG", "city_id": 1141, "city": "Mar del Plata", "pop_total": 350907.823969007, "mass_total": 83690343.3589707, "log_pop": 5.545193, "log_mass": 7.922675, "log_pop_c": 0.249584, "log_mass_c": 0.232695, "lat": -38.0077752021715, "lon": -57.5736408450874}]