[{"country_iso": "LKA", "city_id": 8835, "city": "Colombo", "pop_total": 2592226.75738613, "mass_total": 429216459.081929, "log_pop": 6.413673, "log_mass": 8.632676, "log_pop_c": 1.317132, "log_mass_c": 1.270929, "lat": 6.92967311820492, "lon": 79.9435263462113}, {"country_iso": "LKA", "city_id": 8886, "city": "Horana", "pop_total": 56229.6280005193, "mass_total": 16968716.5432328, "log_pop": 4.749965, "log_mass": 7.229649, "log_pop_c": -0.346576, "log_mass_c": -0.132099, "lat": 6.71570379716772, "lon": 80.022373819726}, {"country_iso": "LKA", "city_id": 8908, "city": "Ambalangoda", "pop_total": 55402.4435915106, "mass_total": 13100181.4459206, "log_pop": 4.743529, "log_mass": 7.117277, "log_pop_c": -0.353012, "log_mass_c": -0.24447, "lat": 6.26848121087354, "lon": 80.0459392001998}, {"country_iso": "LKA", "city_id": 8935, "city": "Galle", "pop_total": 152726.798642068, "mass_total": 34389410.4841448, "log_pop": 5.183915, "log_mass": 7.536425, "log_pop_c": 0.087374, "log_mass_c": 0.174677, "lat": 6.05795539400745, "lon": 80.2113035289212}, {"country_iso": "LKA", "city_id": 9007, "city": "Matara", "pop_total": 146842.165303383, "mass_total": 35153063.6050172, "log_pop": 5.166851, "log_mass": 7.545963, "log_pop_c": 0.07031, "log_mass_c": 0.184216, "lat": 5.95343248973914, "lon": 80.5266176462773}, {"country_iso": "LKA", "city_id": 9222, "city": "Batticaloa", "pop_total": 72662.2971220241, "mass_total": 10392566.141159, "log_pop": 4.861309, "log_mass": 7.016723, "log_pop_c": -0.235232, "log_mass_c": -0.345025, "lat": 7.70162228965504, "lon": 81.7139493605848}, {"country_iso": "LKA", "city_id": 9256, "city": "Kalmunai", "pop_total": 89742.0748829589, "mass_total": 9143018.18642851, "log_pop": 4.952996, "log_mass": 6.96109, "log_pop_c": -0.143545, "log_mass_c": -0.400658, "lat": 7.39201464683835, "lon": 81.8347260179355}, {"country_iso": "LKA", "city_id": 9261, "city": "Akkaraipattu", "pop_total": 50129.2858261202, "mass_total": 7147884.96774366, "log_pop": 4.700092, "log_mass": 6.854178, "log_pop_c": -0.39645, "log_mass_c": -0.50757, "lat": 7.24025008917682, "lon": 81.8520358480527}]