[{"country_iso": "GRC", "city_id": 3369, "city": "Patras", "pop_total": 125325.389576934, "mass_total": 32485427.9765818, "log_pop": 5.098039, "log_mass": 7.511689, "log_pop_c": -0.292226, "log_mass_c": -0.211243, "lat": 38.2378700426068, "lon": 21.7451008228823}, {"country_iso": "GRC", "city_id": 3377, "city": "Larissa", "pop_total": 92108.7594661906, "mass_total": 19428633.5846855, "log_pop": 4.964301, "log_mass": 7.288442, "log_pop_c": -0.425964, "log_mass_c": -0.434489, "lat": 39.6271579672783, "lon": 22.4190546263689}, {"country_iso": "GRC", "city_id": 3384, "city": "Thessaloniki", "pop_total": 657710.156493767, "mass_total": 126732110.425923, "log_pop": 5.818035, "log_mass": 8.102887, "log_pop_c": 0.42777, "log_mass_c": 0.379955, "lat": 40.6420688258842, "lon": 22.9370835080161}, {"country_iso": "GRC", "city_id": 3393, "city": "Volos", "pop_total": 89657.2134782821, "mass_total": 21256203.6498346, "log_pop": 4.952585, "log_mass": 7.327486, "log_pop_c": -0.43768, "log_mass_c": -0.395446, "lat": 39.3696507401318, "lon": 22.9346446795842}, {"country_iso": "GRC", "city_id": 3420, "city": "Athens", "pop_total": 2687178.0042217, "mass_total": 527426468.760256, "log_pop": 6.429296, "log_mass": 8.722162, "log_pop_c": 1.039032, "log_mass_c": 0.999231, "lat": 37.9999373213897, "lon": 23.7426968572568}, {"country_iso": "GRC", "city_id": 3477, "city": "Heraklion", "pop_total": 120041.859682599, "mass_total": 24261766.6745398, "log_pop": 5.079333, "log_mass": 7.384922, "log_pop_c": -0.310932, "log_mass_c": -0.338009, "lat": 35.3252604387306, "lon": 25.1218448100492}]