[{"country_iso": "AGO", "city_id": 3002, "city": "Cabinda", "pop_total": 77563.6557176216, "mass_total": 18721877.7610884, "log_pop": 4.889658, "log_mass": 7.272349, "log_pop_c": -0.252595, "log_mass_c": -0.207548, "lat": -5.58020854525052, "lon": 12.2020694656919}, {"country_iso": "AGO", "city_id": 3050, "city": "Luanda", "pop_total": 3749249.33687314, "mass_total": 290030060.53078, "log_pop": 6.573944, "log_mass": 8.462443, "log_pop_c": 1.431692, "log_mass_c": 0.982545, "lat": -8.90189937832418, "lon": 13.3028453822369}, {"country_iso": "AGO", "city_id": 3064, "city": "Benguela", "pop_total": 110806.688597488, "mass_total": 18464523.7038557, "log_pop": 5.044566, "log_mass": 7.266338, "log_pop_c": -0.097687, "log_mass_c": -0.21356, "lat": -12.5928965113426, "lon": 13.3991769316399}, {"country_iso": "AGO", "city_id": 3065, "city": "Lubango", "pop_total": 140310.949161531, "mass_total": 33648536.2852421, "log_pop": 5.147092, "log_mass": 7.526966, "log_pop_c": 0.004839, "log_mass_c": 0.047068, "lat": -14.9141351305928, "lon": 13.5108388619018}, {"country_iso": "AGO", "city_id": 3082, "city": "Lobito", "pop_total": 64594.0612355176, "mass_total": 26961475.6302409, "log_pop": 4.810193, "log_mass": 7.430744, "log_pop_c": -0.33206, "log_mass_c": -0.049154, "lat": -12.3794074694566, "lon": 13.5685617789481}, {"country_iso": "AGO", "city_id": 3198, "city": "U\u00edge", "pop_total": 66070.0229958104, "mass_total": 13738856.8280576, "log_pop": 4.820004, "log_mass": 7.137951, "log_pop_c": -0.322248, "log_mass_c": -0.341947, "lat": -7.60945540670654, "lon": 15.0538216833824}, {"country_iso": "AGO", "city_id": 3227, "city": "Huambo", "pop_total": 103911.793595684, "mass_total": 28245764.8137696, "log_pop": 5.016665, "log_mass": 7.450953, "log_pop_c": -0.125588, "log_mass_c": -0.028944, "lat": -12.7704085448409, "lon": 15.7445633725687}, {"country_iso": "AGO", "city_id": 3258, "city": "Malanje", "pop_total": 68533.1105313844, "mass_total": 19563114.6192954, "log_pop": 4.8359, "log_mass": 7.291438, "log_pop_c": -0.306352, "log_mass_c": -0.18846, "lat": -9.5446450614292, "lon": 16.3472165360844}]