[{"country_iso":"CHN","city_id":6411,"city":"Yining/Qulja","pop_total":63775.914711836,"mass_total":14885633.7039851,"log_pop":4.804657,"log_mass":7.172767,"log_pop_c":-0.341222,"log_mass_c":-0.418528,"lat":43.9299950874175,"lon":81.306837085858},{"country_iso":"CHN","city_id":6564,"city":"Karamay","pop_total":59524.6000871937,"mass_total":23835883.2219605,"log_pop":4.774696,"log_mass":7.377231,"log_pop_c":-0.371182,"log_mass_c":-0.214064,"lat":45.5906638213187,"lon":84.8724405323495},{"country_iso":"CHN","city_id":6764,"city":"Shihezi","pop_total":206337.142134327,"mass_total":57098898.0855007,"log_pop":5.314577,"log_mass":7.756628,"log_pop_c":0.168699,"log_mass_c":0.165332,"lat":44.3220676682427,"lon":86.0418495605534},{"country_iso":"CHN","city_id":6984,"city":"Changji/Sanji","pop_total":286622.39702297,"mass_total":50618032.599337,"log_pop":5.45731,"log_mass":7.704305,"log_pop_c":0.311432,"log_mass_c":0.11301,"lat":44.0091309480722,"lon":87.2860221749146},{"country_iso":"CHN","city_id":7045,"city":"Ürümqi","pop_total":2394916.05758025,"mass_total":422012563.480102,"log_pop":6.37929,"log_mass":8.625325,"log_pop_c":1.233412,"log_mass_c":1.03403,"lat":43.859823997299,"lon":87.5984807809046},{"country_iso":"CHN","city_id":7125,"city":"Tianshan","pop_total":61770.6900175253,"mass_total":18186365.1013827,"log_pop":4.790782,"log_mass":7.259746,"log_pop_c":-0.355096,"log_mass_c":-0.33155,"lat":41.7685769094939,"lon":86.1399773944362},{"country_iso":"CHN","city_id":9931,"city":"Zhangye","pop_total":132808.835108304,"mass_total":32679679.2181912,"log_pop":5.123227,"log_mass":7.514278,"log_pop_c":-0.022651,"log_mass_c":-0.077018,"lat":38.9359061274415,"lon":100.458193161373},{"country_iso":"CHN","city_id":10057,"city":"Jinchang","pop_total":83678.012814857,"mass_total":38843000.7046647,"log_pop":4.922611,"log_mass":7.589313,"log_pop_c":-0.223267,"log_mass_c":-0.001983,"lat":38.5066305045104,"lon":102.186915788188},{"country_iso":"CHN","city_id":10088,"city":"Wuwei","pop_total":80818.1570994943,"mass_total":30601830.3248522,"log_pop":4.907509,"log_mass":7.485747,"log_pop_c":-0.238369,"log_mass_c":-0.105548,"lat":37.9425892340137,"lon":102.608694240654},{"country_iso":"CHN","city_id":10097,"city":"Xining","pop_total":808478.343122437,"mass_total":137601008.298597,"log_pop":5.907668,"log_mass":8.138622,"log_pop_c":0.76179,"log_mass_c":0.547326,"lat":36.6246688553725,"lon":101.774462986526},{"country_iso":"CHN","city_id":10109,"city":"Manzhouli","pop_total":54624.9435297831,"mass_total":22448153.7351477,"log_pop":4.737391,"log_mass":7.351181,"log_pop_c":-0.408487,"log_mass_c":-0.240115,"lat":49.5902995698717,"lon":117.447583589176},{"country_iso":"CHN","city_id":10115,"city":"Bayannur","pop_total":181540.097694581,"mass_total":42202620.2928788,"log_pop":5.258973,"log_mass":7.625339,"log_pop_c":0.113094,"log_mass_c":0.034044,"lat":40.7598312845882,"lon":107.402886572578},{"country_iso":"CHN","city_id":10122,"city":"Lanzhou","pop_total":1676326.03860992,"mass_total":289163091.31167,"log_pop":6.224358,"log_mass":8.461143,"log_pop_c":1.07848,"log_mass_c":0.869847,"lat":36.0793714153221,"lon":103.765924801904},{"country_iso":"CHN","city_id":10123,"city":"Linxia","pop_total":127078.923627785,"mass_total":22792280.3075177,"log_pop":5.104074,"log_mass":7.357788,"log_pop_c":-0.041805,"log_mass_c":-0.233508,"lat":35.6001765758658,"lon":103.218591329083},{"country_iso":"CHN","city_id":10124,"city":"Wuhai","pop_total":54117.489275718,"mass_total":25644573.8980279,"log_pop":4.733338,"log_mass":7.408995,"log_pop_c":-0.412541,"log_mass_c":-0.1823,"lat":39.6674334638804,"lon":106.815115975638},{"country_iso":"CHN","city_id":10127,"city":"Baiyin","pop_total":151006.355177713,"mass_total":40879747.9838731,"log_pop":5.178995,"log_mass":7.611508,"log_pop_c":0.033117,"log_mass_c":0.020213,"lat":36.5463824689076,"lon":104.160806100774},{"country_iso":"CHN","city_id":10128,"city":"Shizuishan","pop_total":105728.499743926,"mass_total":33957501.8210862,"log_pop":5.024192,"log_mass":7.530936,"log_pop_c":-0.121686,"log_mass_c":-0.06036,"lat":39.0220387183425,"lon":106.371385684894},{"country_iso":"CHN","city_id":10136,"city":"Huinong","pop_total":54511.8267760241,"mass_total":8691184.86824421,"log_pop":4.736491,"log_mass":6.939079,"log_pop_c":-0.409388,"log_mass_c":-0.652216,"lat":39.2250877386062,"lon":106.766032594337},{"country_iso":"CHN","city_id":10137,"city":"Yinchuan","pop_total":850950.429191328,"mass_total":225035855.961205,"log_pop":5.929904,"log_mass":8.352252,"log_pop_c":0.784026,"log_mass_c":0.760956,"lat":38.4860565211544,"lon":106.234580735291},{"country_iso":"CHN","city_id":10139,"city":"Pingluo","pop_total":54945.1882343345,"mass_total":11865041.2658471,"log_pop":4.73993,"log_mass":7.074269,"log_pop_c":-0.405949,"log_mass_c":-0.517026,"lat":38.9016541184316,"lon":106.544153920836},{"country_iso":"CHN","city_id":10154,"city":"Wuzhong","pop_total":111646.239850914,"mass_total":31320765.0043426,"log_pop":5.047844,"log_mass":7.495832,"log_pop_c":-0.098034,"log_mass_c":-0.095463,"lat":37.9725989097834,"lon":106.180260774496},{"country_iso":"CHN","city_id":10160,"city":"Hulunbuir","pop_total":119178.564970349,"mass_total":44247897.7915073,"log_pop":5.076198,"log_mass":7.645893,"log_pop_c":-0.06968,"log_mass_c":0.054597,"lat":49.2209776910459,"lon":119.74433423705},{"country_iso":"CHN","city_id":10169,"city":"Dingxi","pop_total":60103.9804383273,"mass_total":14385462.3736686,"log_pop":4.778903,"log_mass":7.157924,"log_pop_c":-0.366975,"log_mass_c":-0.433372,"lat":35.5776503276981,"lon":104.612960752827},{"country_iso":"CHN","city_id":10186,"city":"Baotou","pop_total":1526555.15615787,"mass_total":314290152.124477,"log_pop":6.183713,"log_mass":8.497331,"log_pop_c":1.037834,"log_mass_c":0.906035,"lat":40.6332405008262,"lon":109.893229318821},{"country_iso":"CHN","city_id":10192,"city":"Yakeshi/Yaysi","pop_total":57944.3014474331,"mass_total":23202493.6855762,"log_pop":4.763011,"log_mass":7.365535,"log_pop_c":-0.382868,"log_mass_c":-0.225761,"lat":49.2800923966311,"lon":120.720757054455},{"country_iso":"CHN","city_id":10196,"city":"Muse","pop_total":86158.1081618495,"mass_total":44187028.586232,"log_pop":4.935296,"log_mass":7.645295,"log_pop_c":-0.210582,"log_mass_c":0.053999,"lat":24.0031759901338,"lon":97.8784901506047},{"country_iso":"CHN","city_id":10214,"city":"Dalad","pop_total":83499.2908114873,"mass_total":22831749.3243191,"log_pop":4.921683,"log_mass":7.358539,"log_pop_c":-0.224196,"log_mass_c":-0.232756,"lat":40.3965496262251,"lon":110.008701183622},{"country_iso":"CHN","city_id":10230,"city":"Guyuan","pop_total":53935.1766224889,"mass_total":16241256.6884268,"log_pop":4.731872,"log_mass":7.21062,"log_pop_c":-0.414006,"log_mass_c":-0.380676,"lat":36.0112952952782,"lon":106.275192641894},{"country_iso":"CHN","city_id":10232,"city":"Gangu","pop_total":69997.275858434,"mass_total":16080587.6314233,"log_pop":4.845081,"log_mass":7.206302,"log_pop_c":-0.300797,"log_mass_c":-0.384993,"lat":34.7522886952005,"lon":105.317560918783},{"country_iso":"CHN","city_id":10234,"city":"Baoshan","pop_total":217699.029916745,"mass_total":56690353.7508687,"log_pop":5.337856,"log_mass":7.753509,"log_pop_c":0.191978,"log_mass_c":0.162214,"lat":25.1312448013636,"lon":99.1929058399701},{"country_iso":"CHN","city_id":10240,"city":"Dongsheng","pop_total":283235.046252301,"mass_total":42897508.2058829,"log_pop":5.452147,"log_mass":7.632432,"log_pop_c":0.306269,"log_mass_c":0.041137,"lat":39.817120638292,"lon":109.987888196622},{"country_iso":"CHN","city_id":10243,"city":"Lijiang","pop_total":94325.9578630905,"mass_total":31305654.7898787,"log_pop":4.974631,"log_mass":7.495623,"log_pop_c":-0.171247,"log_mass_c":-0.095673,"lat":26.888055031723,"lon":100.223520436485},{"country_iso":"CHN","city_id":10256,"city":"Jiagedaqi","pop_total":70778.3102206518,"mass_total":26143672.4068131,"log_pop":4.8499,"log_mass":7.417367,"log_pop_c":-0.295978,"log_mass_c":-0.173929,"lat":50.4260998072185,"lon":124.113412792734},{"country_iso":"CHN","city_id":10258,"city":"Tianshui","pop_total":161174.888194914,"mass_total":36091319.0658066,"log_pop":5.207297,"log_mass":7.557403,"log_pop_c":0.061419,"log_mass_c":-0.033893,"lat":34.5764244303803,"lon":105.735717734493},{"country_iso":"CHN","city_id":10264,"city":"Longnan","pop_total":52810.4147007667,"mass_total":14420184.553822,"log_pop":4.72272,"log_mass":7.158971,"log_pop_c":-0.423159,"log_mass_c":-0.432325,"lat":33.3947125262637,"lon":104.918168954392},{"country_iso":"CHN","city_id":10265,"city":"Hohhot","pop_total":1399775.77623041,"mass_total":368103889.139415,"log_pop":6.146058,"log_mass":8.56597,"log_pop_c":1.00018,"log_mass_c":0.974675,"lat":40.817279064356,"lon":111.66050664658},{"country_iso":"CHN","city_id":10268,"city":"Pingliang","pop_total":165184.296319117,"mass_total":26979779.3633761,"log_pop":5.217969,"log_mass":7.431038,"log_pop_c":0.07209,"log_mass_c":-0.160257,"lat":35.5414176630586,"lon":106.679610247887},{"country_iso":"CHN","city_id":10269,"city":"Maiji","pop_total":74729.8980702419,"mass_total":22202929.7512079,"log_pop":4.873494,"log_mass":7.34641,"log_pop_c":-0.272384,"log_mass_c":-0.244885,"lat":34.5579376505456,"lon":105.88700345352},{"country_iso":"CHN","city_id":10272,"city":"Dali","pop_total":211403.618433033,"mass_total":51627559.2351799,"log_pop":5.325112,"log_mass":7.712882,"log_pop_c":0.179234,"log_mass_c":0.121586,"lat":25.6452843003725,"lon":100.202924551094},{"country_iso":"CHN","city_id":10280,"city":"Jingbian","pop_total":69726.1853764604,"mass_total":20529933.6504355,"log_pop":4.843396,"log_mass":7.312388,"log_pop_c":-0.302482,"log_mass_c":-0.278908,"lat":37.5935131480278,"lon":108.801935207779},{"country_iso":"CHN","city_id":10283,"city":"Dujiangyan","pop_total":225043.485178251,"mass_total":58803798.4082649,"log_pop":5.352266,"log_mass":7.769405,"log_pop_c":0.206388,"log_mass_c":0.17811,"lat":30.9826877437563,"lon":103.640397705775},{"country_iso":"CHN","city_id":10284,"city":"Ya'an","pop_total":115596.713969066,"mass_total":19293546.5294542,"log_pop":5.062945,"log_mass":7.285412,"log_pop_c":-0.082933,"log_mass_c":-0.305883,"lat":29.996007663942,"lon":102.994607170076},{"country_iso":"CHN","city_id":10290,"city":"Dayi","pop_total":93024.2087672869,"mass_total":27573790.7103629,"log_pop":4.968596,"log_mass":7.440496,"log_pop_c":-0.177282,"log_mass_c":-0.150799,"lat":30.5785417953151,"lon":103.524531089261},{"country_iso":"CHN","city_id":10292,"city":"Qionglai","pop_total":122012.773273561,"mass_total":21354279.1975529,"log_pop":5.086405,"log_mass":7.329485,"log_pop_c":-0.059473,"log_mass_c":-0.26181,"lat":30.4107827831854,"lon":103.456148712968},{"country_iso":"CHN","city_id":10297,"city":"Chengdu","pop_total":7067229.88961278,"mass_total":1408161422.80925,"log_pop":6.849249,"log_mass":9.148652,"log_pop_c":1.703371,"log_mass_c":1.557357,"lat":30.688937188118,"lon":104.034566679534},{"country_iso":"CHN","city_id":10299,"city":"Hangyulu","pop_total":50870.468218755,"mass_total":19594446.9681886,"log_pop":4.706466,"log_mass":7.292133,"log_pop_c":-0.439413,"log_mass_c":-0.299162,"lat":38.2158650004994,"lon":109.756435284677},{"country_iso":"CHN","city_id":10300,"city":"Pengzhou","pop_total":164365.829429744,"mass_total":38290333.2831877,"log_pop":5.215812,"log_mass":7.583089,"log_pop_c":0.069933,"log_mass_c":-0.008206,"lat":30.977144234976,"lon":103.943397686067},{"country_iso":"CHN","city_id":10303,"city":"Mianzhu","pop_total":62668.5707559623,"mass_total":17210426.6392538,"log_pop":4.79705,"log_mass":7.235792,"log_pop_c":-0.348829,"log_mass_c":-0.355504,"lat":31.3483372128681,"lon":104.207793031149},{"country_iso":"CHN","city_id":10305,"city":"Qingyang","pop_total":126772.587443115,"mass_total":24876443.6376923,"log_pop":5.103025,"log_mass":7.395788,"log_pop_c":-0.042853,"log_mass_c":-0.195507,"lat":35.7277568023621,"lon":107.642379231493},{"country_iso":"CHN","city_id":10307,"city":"Shenmu","pop_total":95996.7442020704,"mass_total":18571469.8804545,"log_pop":4.982257,"log_mass":7.268846,"log_pop_c":-0.163622,"log_mass_c":-0.322449,"lat":38.8269528869665,"lon":110.499525278506},{"country_iso":"CHN","city_id":10308,"city":"Shifang","pop_total":82431.5951131461,"mass_total":19940047.4923115,"log_pop":4.916094,"log_mass":7.299726,"log_pop_c":-0.229785,"log_mass_c":-0.291569,"lat":31.1304567108149,"lon":104.169763632987},{"country_iso":"CHN","city_id":10309,"city":"Xilinhot","pop_total":75763.5103656336,"mass_total":29674958.1744972,"log_pop":4.87946,"log_mass":7.47239,"log_pop_c":-0.266418,"log_mass_c":-0.118905,"lat":43.9400180945683,"lon":116.068449350384},{"country_iso":"CHN","city_id":10311,"city":"Xinjin","pop_total":79505.5356591181,"mass_total":33877675.1257628,"log_pop":4.900397,"log_mass":7.529914,"log_pop_c":-0.245481,"log_mass_c":-0.061382,"lat":30.4168560265974,"lon":103.786313846941},{"country_iso":"CHN","city_id":10313,"city":"Jiangyou","pop_total":168649.80268024,"mass_total":44776448.4830147,"log_pop":5.226986,"log_mass":7.65105,"log_pop_c":0.081107,"log_mass_c":0.059754,"lat":31.7766693313816,"lon":104.749426174796},{"country_iso":"CHN","city_id":10314,"city":"Lincang","pop_total":68944.8842600911,"mass_total":22144140.2378193,"log_pop":4.838502,"log_mass":7.345259,"log_pop_c":-0.307376,"log_mass_c":-0.246037,"lat":23.8909272077003,"lon":100.094224393024},{"country_iso":"CHN","city_id":10316,"city":"Deyang","pop_total":332982.505601757,"mass_total":85916668.2860138,"log_pop":5.522421,"log_mass":7.934077,"log_pop_c":0.376543,"log_mass_c":0.342782,"lat":31.1308552173522,"lon":104.378781948243},{"country_iso":"CHN","city_id":10318,"city":"Guanghan","pop_total":124374.029347582,"mass_total":39918080.2913601,"log_pop":5.09473,"log_mass":7.60117,"log_pop_c":-0.051149,"log_mass_c":0.009874,"lat":30.9790684574886,"lon":104.277463774689},{"country_iso":"CHN","city_id":10319,"city":"Mianyang","pop_total":540944.180200415,"mass_total":130122127.581512,"log_pop":5.733152,"log_mass":8.114351,"log_pop_c":0.587274,"log_mass_c":0.523056,"lat":31.4724059688908,"lon":104.71922148548},{"country_iso":"CHN","city_id":10325,"city":"Baode","pop_total":91506.8978497103,"mass_total":28179470.1997699,"log_pop":4.961454,"log_mass":7.449933,"log_pop_c":-0.184425,"log_mass_c":-0.141363,"lat":39.0359310530518,"lon":111.059235884268},{"country_iso":"CHN","city_id":10330,"city":"Emeishan","pop_total":95180.2498181404,"mass_total":18983137.4131941,"log_pop":4.978547,"log_mass":7.278368,"log_pop_c":-0.167332,"log_mass_c":-0.312927,"lat":29.6027054545013,"lon":103.494005276579},{"country_iso":"CHN","city_id":10331,"city":"Panzhihua","pop_total":222447.57919206,"mass_total":47896313.3037856,"log_pop":5.347228,"log_mass":7.680302,"log_pop_c":0.201349,"log_mass_c":0.089007,"lat":26.5469687612769,"lon":101.726392293778},{"country_iso":"CHN","city_id":10332,"city":"Ulanqab","pop_total":187197.939316398,"mass_total":45793559.2141917,"log_pop":5.272301,"log_mass":7.660804,"log_pop_c":0.126423,"log_mass_c":0.069509,"lat":41.018507531335,"lon":113.112907547438},{"country_iso":"CHN","city_id":10334,"city":"Meishan","pop_total":226398.795956197,"mass_total":51735711.4962951,"log_pop":5.354874,"log_mass":7.71379,"log_pop_c":0.208996,"log_mass_c":0.122495,"lat":30.0448044738109,"lon":103.838700000004},{"country_iso":"CHN","city_id":10342,"city":"Baoji","pop_total":582322.045058752,"mass_total":148279738.841103,"log_pop":5.765163,"log_mass":8.171082,"log_pop_c":0.619285,"log_mass_c":0.579786,"lat":34.3650250810597,"lon":107.216027800273},{"country_iso":"CHN","city_id":10345,"city":"Leshan","pop_total":222101.843250796,"mass_total":60538961.9222674,"log_pop":5.346552,"log_mass":7.782035,"log_pop_c":0.200674,"log_mass_c":0.19074,"lat":29.5937849766408,"lon":103.730376419259},{"country_iso":"CHN","city_id":10346,"city":"中江县","pop_total":93263.3848548132,"mass_total":21359584.1870963,"log_pop":4.969711,"log_mass":7.329593,"log_pop_c":-0.176167,"log_mass_c":-0.261703,"lat":31.0430677977936,"lon":104.66974300194},{"country_iso":"CHN","city_id":10356,"city":"Renshou","pop_total":87125.7030307246,"mass_total":17675892.9545887,"log_pop":4.940146,"log_mass":7.247381,"log_pop_c":-0.205732,"log_mass_c":-0.343914,"lat":29.9955552630101,"lon":104.145059927405},{"country_iso":"CHN","city_id":10359,"city":"五通桥区","pop_total":50881.2848544831,"mass_total":13083709.9440431,"log_pop":4.706558,"log_mass":7.116731,"log_pop_c":-0.43932,"log_mass_c":-0.474565,"lat":29.3971728195871,"lon":103.810433068163},{"country_iso":"CHN","city_id":10363,"city":"Jianyang","pop_total":107913.81064649,"mass_total":19903373.6624383,"log_pop":5.033077,"log_mass":7.298927,"log_pop_c":-0.112801,"log_mass_c":-0.292369,"lat":30.3988032164867,"lon":104.539233759066},{"country_iso":"CHN","city_id":10367,"city":"Xingxian","pop_total":50185.9389065359,"mass_total":8834397.80391245,"log_pop":4.700582,"log_mass":6.946177,"log_pop_c":-0.445296,"log_mass_c":-0.645118,"lat":38.4653429193334,"lon":111.127803273314},{"country_iso":"CHN","city_id":10369,"city":"三台县","pop_total":71511.1350607152,"mass_total":18157276.3914046,"log_pop":4.854374,"log_mass":7.259051,"log_pop_c":-0.291505,"log_mass_c":-0.332245,"lat":31.0977264704279,"lon":105.088391168178},{"country_iso":"CHN","city_id":10372,"city":"Lucheng","pop_total":165434.877744649,"mass_total":46980898.1501508,"log_pop":5.218627,"log_mass":7.671921,"log_pop_c":0.072749,"log_mass_c":0.080626,"lat":25.0395985950966,"lon":101.552303484143},{"country_iso":"CHN","city_id":10374,"city":"Zalantun","pop_total":77566.5800440036,"mass_total":30259364.6754805,"log_pop":4.889675,"log_mass":7.48086,"log_pop_c":-0.256204,"log_mass_c":-0.110436,"lat":48.003501576657,"lon":122.737091364808},{"country_iso":"CHN","city_id":10378,"city":"Mianxian","pop_total":62283.1226800601,"mass_total":20358822.7475163,"log_pop":4.79437,"log_mass":7.308753,"log_pop_c":-0.351508,"log_mass_c":-0.282543,"lat":33.1511547652267,"lon":106.679351570981},{"country_iso":"CHN","city_id":10383,"city":"Ziyang","pop_total":174429.583768655,"mass_total":29653689.411682,"log_pop":5.24162,"log_mass":7.472079,"log_pop_c":0.095742,"log_mass_c":-0.119217,"lat":30.1229569731748,"lon":104.631481485799},{"country_iso":"CHN","city_id":10394,"city":"Rongxian","pop_total":55356.7992785697,"mass_total":10368406.8598125,"log_pop":4.743171,"log_mass":7.015712,"log_pop_c":-0.402707,"log_mass_c":-0.575583,"lat":29.4518095975557,"lon":104.418393195448},{"country_iso":"CHN","city_id":10395,"city":"Shuozhou","pop_total":217226.308115254,"mass_total":50072777.4712435,"log_pop":5.336912,"log_mass":7.699602,"log_pop_c":0.191034,"log_mass_c":0.108306,"lat":39.3287941824593,"lon":112.435485021605},{"country_iso":"CHN","city_id":10396,"city":"射洪县","pop_total":130283.402763034,"mass_total":22053934.4932725,"log_pop":5.114889,"log_mass":7.343486,"log_pop_c":-0.030989,"log_mass_c":-0.247809,"lat":30.8768552069591,"lon":105.37701674567},{"country_iso":"CHN","city_id":10397,"city":"Hanzhong","pop_total":244053.924183713,"mass_total":43706880.291046,"log_pop":5.387486,"log_mass":7.64055,"log_pop_c":0.241607,"log_mass_c":0.049254,"lat":33.0991341957261,"lon":107.017549962881},{"country_iso":"CHN","city_id":10398,"city":"Datong","pop_total":1039229.22686968,"mass_total":262790492.977094,"log_pop":6.016711,"log_mass":8.41961,"log_pop_c":0.870833,"log_mass_c":0.828314,"lat":40.0610444124445,"lon":113.256387766745},{"country_iso":"CHN","city_id":10402,"city":"大英县","pop_total":60753.59797005,"mass_total":11415080.7301391,"log_pop":4.783572,"log_mass":7.057479,"log_pop_c":-0.362306,"log_mass_c":-0.533816,"lat":30.5887367303579,"lon":105.258792287764},{"country_iso":"CHN","city_id":10406,"city":"Langzhong","pop_total":94623.0170434274,"mass_total":15388438.0805363,"log_pop":4.975997,"log_mass":7.187195,"log_pop_c":-0.169882,"log_mass_c":-0.404101,"lat":31.5852896708608,"lon":105.974067527913},{"country_iso":"CHN","city_id":10412,"city":"Huairen","pop_total":103852.257603734,"mass_total":27710712.0294267,"log_pop":5.016416,"log_mass":7.442648,"log_pop_c":-0.129462,"log_mass_c":-0.148648,"lat":39.8149108648889,"lon":113.103132105065},{"country_iso":"CHN","city_id":10413,"city":"Shanyin","pop_total":51365.5139501805,"mass_total":15886822.3755972,"log_pop":4.710672,"log_mass":7.201037,"log_pop_c":-0.435207,"log_mass_c":-0.390258,"lat":39.5187990648653,"lon":112.823775226771},{"country_iso":"CHN","city_id":10414,"city":"Yangling","pop_total":75174.2984564209,"mass_total":17971058.2863553,"log_pop":4.876069,"log_mass":7.254574,"log_pop_c":-0.269809,"log_mass_c":-0.336722,"lat":34.2687344004038,"lon":108.077583448229},{"country_iso":"CHN","city_id":10415,"city":"Pu'er","pop_total":74892.68766616,"mass_total":26538407.4434297,"log_pop":4.874439,"log_mass":7.423875,"log_pop_c":-0.271439,"log_mass_c":-0.167421,"lat":22.7864327751631,"lon":100.970975877277},{"country_iso":"CHN","city_id":10416,"city":"威远县","pop_total":63522.0385175677,"mass_total":14237113.1408689,"log_pop":4.802924,"log_mass":7.153422,"log_pop_c":-0.342954,"log_mass_c":-0.437873,"lat":29.5249852848662,"lon":104.666631785615},{"country_iso":"CHN","city_id":10417,"city":"Nenjiang","pop_total":82419.9266038642,"mass_total":23448533.7593161,"log_pop":4.916032,"log_mass":7.370116,"log_pop_c":-0.229846,"log_mass_c":-0.22118,"lat":49.1671693542172,"lon":125.219808114061},{"country_iso":"CHN","city_id":10418,"city":"Jiulongba","pop_total":77405.4099078795,"mass_total":13481221.536309,"log_pop":4.888771,"log_mass":7.129729,"log_pop_c":-0.257107,"log_mass_c":-0.461566,"lat":29.7715473218755,"lon":104.85171212851},{"country_iso":"CHN","city_id":10420,"city":"Liulin","pop_total":71375.9536669615,"mass_total":15051379.7758037,"log_pop":4.853552,"log_mass":7.177576,"log_pop_c":-0.292326,"log_mass_c":-0.413719,"lat":37.4342198773492,"lon":110.887150601084},{"country_iso":"CHN","city_id":10424,"city":"Zigong","pop_total":235115.009845802,"mass_total":59760156.204159,"log_pop":5.37128,"log_mass":7.776412,"log_pop_c":0.225402,"log_mass_c":0.185116,"lat":29.355915138967,"lon":104.754075832581},{"country_iso":"CHN","city_id":10427,"city":"Nanbu","pop_total":115121.747286671,"mass_total":23440412.6372064,"log_pop":5.061157,"log_mass":7.369965,"log_pop_c":-0.084721,"log_mass_c":-0.22133,"lat":31.3517224767303,"lon":106.055585088861},{"country_iso":"CHN","city_id":10435,"city":"Lüliang","pop_total":132636.218172513,"mass_total":34261582.5613777,"log_pop":5.122662,"log_mass":7.534807,"log_pop_c":-0.023216,"log_mass_c":-0.056488,"lat":37.5164437235627,"lon":111.138126943111},{"country_iso":"CHN","city_id":10437,"city":"Suining","pop_total":256779.851674118,"mass_total":41686408.2323009,"log_pop":5.409561,"log_mass":7.619994,"log_pop_c":0.263683,"log_mass_c":0.028699,"lat":30.5098686208268,"lon":105.584808006349},{"country_iso":"CHN","city_id":10441,"city":"Ying","pop_total":50136.25126584,"mass_total":11523295.5848099,"log_pop":4.700152,"log_mass":7.061577,"log_pop_c":-0.445727,"log_mass_c":-0.529719,"lat":39.5556973934457,"lon":113.183680206452},{"country_iso":"CHN","city_id":10442,"city":"Xingping","pop_total":118544.198114504,"mass_total":28635459.4113106,"log_pop":5.07388,"log_mass":7.456904,"log_pop_c":-0.071998,"log_mass_c":-0.134391,"lat":34.2968979484943,"lon":108.450569039361},{"country_iso":"CHN","city_id":10444,"city":"Anyue","pop_total":56184.760863134,"mass_total":12749137.3908308,"log_pop":4.749619,"log_mass":7.105481,"log_pop_c":-0.39626,"log_mass_c":-0.485815,"lat":30.1064601441191,"lon":105.347262478484},{"country_iso":"CHN","city_id":10446,"city":"Tongchuan","pop_total":70820.9995233896,"mass_total":22790443.6491696,"log_pop":4.850162,"log_mass":7.357753,"log_pop_c":-0.295716,"log_mass_c":-0.233543,"lat":34.901610627971,"lon":108.950232284219},{"country_iso":"CHN","city_id":10447,"city":"Neijiang","pop_total":252331.86602075,"mass_total":36504981.8685247,"log_pop":5.401972,"log_mass":7.562352,"log_pop_c":0.256094,"log_mass_c":-0.028943,"lat":29.5972680646904,"lon":105.058094016557},{"country_iso":"CHN","city_id":10449,"city":"Yintai","pop_total":85262.5157595882,"mass_total":9722232.97889481,"log_pop":4.930758,"log_mass":6.987766,"log_pop_c":-0.21512,"log_mass_c":-0.603529,"lat":35.0828949161819,"lon":109.086037896456},{"country_iso":"CHN","city_id":10451,"city":"Zhaotong","pop_total":168467.35841974,"mass_total":44642602.9725645,"log_pop":5.226516,"log_mass":7.64975,"log_pop_c":0.080637,"log_mass_c":0.058454,"lat":27.3365838833237,"lon":103.717089796217},{"country_iso":"CHN","city_id":10453,"city":"Yibin","pop_total":344719.853966562,"mass_total":57613234.0309602,"log_pop":5.537466,"log_mass":7.760522,"log_pop_c":0.391588,"log_mass_c":0.169227,"lat":28.7639125254007,"lon":104.603544779116},{"country_iso":"CHN","city_id":10460,"city":"Anning","pop_total":118028.177667501,"mass_total":40138615.4862881,"log_pop":5.071986,"log_mass":7.603562,"log_pop_c":-0.073893,"log_mass_c":0.012267,"lat":24.9202742646743,"lon":102.48232882034},{"country_iso":"CHN","city_id":10463,"city":"渭城区","pop_total":343796.441069077,"mass_total":96959090.8498708,"log_pop":5.536301,"log_mass":7.986589,"log_pop_c":0.390423,"log_mass_c":0.395293,"lat":34.3505597424502,"lon":108.673559598529},{"country_iso":"CHN","city_id":10466,"city":"Bazhong","pop_total":74709.5339059142,"mass_total":17982843.8900541,"log_pop":4.873376,"log_mass":7.254858,"log_pop_c":-0.272502,"log_mass_c":-0.336437,"lat":31.8526952822479,"lon":106.779712097564},{"country_iso":"CHN","city_id":10468,"city":"Fushun","pop_total":84713.7640382243,"mass_total":17174321.8507154,"log_pop":4.927954,"log_mass":7.23488,"log_pop_c":-0.217924,"log_mass_c":-0.356416,"lat":29.1793924887827,"lon":104.97749093589},{"country_iso":"CHN","city_id":10471,"city":"Nanchong","pop_total":446448.465792077,"mass_total":75201406.3023469,"log_pop":5.649771,"log_mass":7.876226,"log_pop_c":0.503893,"log_mass_c":0.284931,"lat":30.7910672949532,"lon":106.083471778929},{"country_iso":"CHN","city_id":10474,"city":"三原县","pop_total":108874.351005161,"mass_total":15318504.3914554,"log_pop":5.036926,"log_mass":7.185216,"log_pop_c":-0.108953,"log_mass_c":-0.406079,"lat":34.614306282408,"lon":108.934326788109},{"country_iso":"CHN","city_id":10476,"city":"Kunming","pop_total":2439682.98834269,"mass_total":459152724.133735,"log_pop":6.387333,"log_mass":8.661957,"log_pop_c":1.241455,"log_mass_c":1.070662,"lat":25.0348103516655,"lon":102.73127107324},{"country_iso":"CHN","city_id":10478,"city":"Zhangjiakou","pop_total":383268.439728097,"mass_total":92732654.9983615,"log_pop":5.583503,"log_mass":7.967233,"log_pop_c":0.437625,"log_mass_c":0.375937,"lat":40.7906650206548,"lon":114.883720434277},{"country_iso":"CHN","city_id":10479,"city":"Xi'an","pop_total":4094139.53390331,"mass_total":903000524.13371,"log_pop":6.612163,"log_mass":8.955688,"log_pop_c":1.466284,"log_mass_c":1.364393,"lat":34.2589147637452,"lon":108.917645321308},{"country_iso":"CHN","city_id":10480,"city":"Huyi","pop_total":69929.7332821208,"mass_total":20541396.1927111,"log_pop":4.844662,"log_mass":7.31263,"log_pop_c":-0.301217,"log_mass_c":-0.278665,"lat":34.1112056851121,"lon":108.603636507267},{"country_iso":"CHN","city_id":10481,"city":"Yuanping","pop_total":83619.3515594756,"mass_total":17398604.8138024,"log_pop":4.922307,"log_mass":7.240514,"log_pop_c":-0.223572,"log_mass_c":-0.350781,"lat":38.7312837952087,"lon":112.724491366309},{"country_iso":"CHN","city_id":10485,"city":"Hunyuan","pop_total":50431.306731929,"mass_total":10547349.3053118,"log_pop":4.7027,"log_mass":7.023143,"log_pop_c":-0.443178,"log_mass_c":-0.568152,"lat":39.6990758196129,"lon":113.693806509921},{"country_iso":"CHN","city_id":10487,"city":"Longjiang","pop_total":57817.9072554177,"mass_total":22152888.7610276,"log_pop":4.762062,"log_mass":7.34543,"log_pop_c":-0.383816,"log_mass_c":-0.245865,"lat":47.3293768465467,"lon":123.171427104774},{"country_iso":"CHN","city_id":10494,"city":"Jijia","pop_total":107427.316449561,"mass_total":44424141.700181,"log_pop":5.031115,"log_mass":7.647619,"log_pop_c":-0.114764,"log_mass_c":0.056324,"lat":34.4663006688852,"lon":108.989627211569},{"country_iso":"CHN","city_id":10497,"city":"Tongnan","pop_total":51690.2869388394,"mass_total":17211554.230985,"log_pop":4.713409,"log_mass":7.23582,"log_pop_c":-0.432469,"log_mass_c":-0.355475,"lat":30.1740003303773,"lon":105.826342430392},{"country_iso":"CHN","city_id":10499,"city":"Longchang","pop_total":73296.8780876421,"mass_total":15326617.9586432,"log_pop":4.865085,"log_mass":7.185446,"log_pop_c":-0.280793,"log_mass_c":-0.405849,"lat":29.3410030310586,"lon":105.287041774006},{"country_iso":"CHN","city_id":10502,"city":"新兴街道","pop_total":105804.33677444,"mass_total":27484026.7910807,"log_pop":5.024503,"log_mass":7.43908,"log_pop_c":-0.121375,"log_mass_c":-0.152215,"lat":34.6573044551237,"lon":109.214200126342},{"country_iso":"CHN","city_id":10503,"city":"Yuxi","pop_total":218731.014371292,"mass_total":73482780.5071205,"log_pop":5.33991,"log_mass":7.866186,"log_pop_c":0.194032,"log_mass_c":0.27489,"lat":24.3758243219405,"lon":102.53420027326},{"country_iso":"CHN","city_id":10504,"city":"Chenggong","pop_total":91793.8985687419,"mass_total":26435814.1531645,"log_pop":4.962814,"log_mass":7.422193,"log_pop_c":-0.183065,"log_mass_c":-0.169103,"lat":24.8848568847953,"lon":102.814281920685},{"country_iso":"CHN","city_id":10505,"city":"Gujiao","pop_total":59172.7620595733,"mass_total":10426304.8507091,"log_pop":4.772122,"log_mass":7.01813,"log_pop_c":-0.373757,"log_mass_c":-0.573165,"lat":37.9163694062686,"lon":112.174853701158},{"country_iso":"CHN","city_id":10508,"city":"Yingshan","pop_total":64199.0091016863,"mass_total":12899762.373864,"log_pop":4.807528,"log_mass":7.110582,"log_pop_c":-0.33835,"log_mass_c":-0.480714,"lat":31.0756208327896,"lon":106.565993646587},{"country_iso":"CHN","city_id":10509,"city":"Pucheng","pop_total":65749.8049443278,"mass_total":22475394.9722443,"log_pop":4.817894,"log_mass":7.351707,"log_pop_c":-0.327984,"log_mass_c":-0.239588,"lat":34.95545040199,"lon":109.58438549596},{"country_iso":"CHN","city_id":10510,"city":"Xinzhou","pop_total":164760.321342948,"mass_total":37013809.7049379,"log_pop":5.216853,"log_mass":7.568364,"log_pop_c":0.070974,"log_mass_c":-0.022932,"lat":38.4190117171064,"lon":112.730607455706},{"country_iso":"CHN","city_id":10513,"city":"Dazu","pop_total":55016.2563401213,"mass_total":16724447.4818432,"log_pop":4.740491,"log_mass":7.223352,"log_pop_c":-0.405387,"log_mass_c":-0.367944,"lat":29.6844247002673,"lon":105.727875509431},{"country_iso":"CHN","city_id":10516,"city":"Xuanhua","pop_total":256137.397923676,"mass_total":83629088.8668532,"log_pop":5.408473,"log_mass":7.922357,"log_pop_c":0.262595,"log_mass_c":0.331062,"lat":40.6018280951252,"lon":115.056805324893},{"country_iso":"CHN","city_id":10517,"city":"临潼区","pop_total":73369.545663123,"mass_total":30081155.0357192,"log_pop":4.865516,"log_mass":7.478295,"log_pop_c":-0.280363,"log_mass_c":-0.113001,"lat":34.3751763355423,"lon":109.211347521396},{"country_iso":"CHN","city_id":10520,"city":"Rongchang","pop_total":92259.7027850946,"mass_total":22534258.6294339,"log_pop":4.965012,"log_mass":7.352843,"log_pop_c":-0.180866,"log_mass_c":-0.238452,"lat":29.4085553126148,"lon":105.603000375251},{"country_iso":"CHN","city_id":10521,"city":"Pingchang","pop_total":57683.3292139278,"mass_total":7897782.27341098,"log_pop":4.76105,"log_mass":6.897505,"log_pop_c":-0.384828,"log_mass_c":-0.69379,"lat":31.5700654748333,"lon":107.094833484821},{"country_iso":"CHN","city_id":10524,"city":"Longshui","pop_total":52147.2495451329,"mass_total":10782088.1315825,"log_pop":4.717231,"log_mass":7.032703,"log_pop_c":-0.428647,"log_mass_c":-0.558593,"lat":29.5680538547991,"lon":105.757016226432},{"country_iso":"CHN","city_id":10526,"city":"Fenyang","pop_total":90729.535927003,"mass_total":22267593.0971595,"log_pop":4.957749,"log_mass":7.347673,"log_pop_c":-0.18813,"log_mass_c":-0.243622,"lat":37.2677996801886,"lon":111.790879876781},{"country_iso":"CHN","city_id":10527,"city":"Chengcheng","pop_total":60106.4755831256,"mass_total":11630439.0187574,"log_pop":4.778921,"log_mass":7.065596,"log_pop_c":-0.366957,"log_mass_c":-0.525699,"lat":35.1682488782856,"lon":109.932679253152},{"country_iso":"CHN","city_id":10529,"city":"岳池县","pop_total":81975.7989465779,"mass_total":18845745.9073995,"log_pop":4.913686,"log_mass":7.275213,"log_pop_c":-0.232193,"log_mass_c":-0.316082,"lat":30.5375958605615,"lon":106.44889535762},{"country_iso":"CHN","city_id":10532,"city":"Taiyuan","pop_total":2703872.17352018,"mass_total":455784368.693478,"log_pop":6.431986,"log_mass":8.658759,"log_pop_c":1.286108,"log_mass_c":1.067464,"lat":37.8513703784234,"lon":112.545334952907},{"country_iso":"CHN","city_id":10533,"city":"Weinan","pop_total":210356.019352464,"mass_total":62721112.985281,"log_pop":5.322955,"log_mass":7.797414,"log_pop_c":0.177077,"log_mass_c":0.206118,"lat":34.4955015403264,"lon":109.480570179128},{"country_iso":"CHN","city_id":10534,"city":"通海县","pop_total":63468.0001770187,"mass_total":18444674.8476559,"log_pop":4.802555,"log_mass":7.265871,"log_pop_c":-0.343324,"log_mass_c":-0.325424,"lat":24.1235263708941,"lon":102.749613769725},{"country_iso":"CHN","city_id":10535,"city":"Jiaocheng","pop_total":70309.9094364162,"mass_total":27236198.1757146,"log_pop":4.847017,"log_mass":7.435146,"log_pop_c":-0.298862,"log_mass_c":-0.156149,"lat":37.537681427712,"lon":112.132692358913},{"country_iso":"CHN","city_id":10536,"city":"Luzhou","pop_total":249347.23560385,"mass_total":47233267.6907341,"log_pop":5.396805,"log_mass":7.674248,"log_pop_c":0.250926,"log_mass_c":0.082953,"lat":28.9229966707914,"lon":105.454505695522},{"country_iso":"CHN","city_id":10537,"city":"Wenshui","pop_total":101346.984455915,"mass_total":37608708.1310515,"log_pop":5.005811,"log_mass":7.575288,"log_pop_c":-0.140068,"log_mass_c":-0.016007,"lat":37.4624202672679,"lon":112.067206436201},{"country_iso":"CHN","city_id":10538,"city":"Xiaoyi","pop_total":150811.408476004,"mass_total":40921459.1433906,"log_pop":5.178434,"log_mass":7.611951,"log_pop_c":0.032556,"log_mass_c":0.020656,"lat":37.1387116823849,"lon":111.788516644582},{"country_iso":"CHN","city_id":10539,"city":"Yiliang","pop_total":59941.4212878723,"mass_total":16409320.7446554,"log_pop":4.777727,"log_mass":7.215091,"log_pop_c":-0.368151,"log_mass_c":-0.376205,"lat":24.9286068700135,"lon":103.153457054854},{"country_iso":"CHN","city_id":10542,"city":"Tongliang","pop_total":69162.4245933907,"mass_total":27138886.0213249,"log_pop":4.83987,"log_mass":7.433592,"log_pop_c":-0.306008,"log_mass_c":-0.157703,"lat":29.8429274070902,"lon":106.075671318774},{"country_iso":"CHN","city_id":10546,"city":"Fula'erji","pop_total":117042.584543023,"mass_total":41914252.5189347,"log_pop":5.068344,"log_mass":7.622362,"log_pop_c":-0.077534,"log_mass_c":0.031066,"lat":47.2008830538,"lon":123.627284792442},{"country_iso":"CHN","city_id":10548,"city":"Ulan Hot","pop_total":148751.908598287,"mass_total":47644616.9711623,"log_pop":5.172463,"log_mass":7.678014,"log_pop_c":0.026584,"log_mass_c":0.086718,"lat":46.0723833470806,"lon":122.057689712846},{"country_iso":"CHN","city_id":10553,"city":"Qingxu","pop_total":77536.8095362753,"mass_total":25505756.3610521,"log_pop":4.889508,"log_mass":7.406638,"log_pop_c":-0.25637,"log_mass_c":-0.184657,"lat":37.6007715220574,"lon":112.328139850268},{"country_iso":"CHN","city_id":10554,"city":"Hechuan","pop_total":194615.095461084,"mass_total":31178104.0379765,"log_pop":5.289177,"log_mass":7.49385,"log_pop_c":0.143298,"log_mass_c":-0.097446,"lat":29.9713565812549,"lon":106.274776519634},{"country_iso":"CHN","city_id":10555,"city":"Guang'an","pop_total":86704.8184074,"mass_total":33745745.7695919,"log_pop":4.938043,"log_mass":7.528219,"log_pop_c":-0.207835,"log_mass_c":-0.063076,"lat":30.4778922039474,"lon":106.627517409756},{"country_iso":"CHN","city_id":10556,"city":"Qiqihar","pop_total":707945.655439834,"mass_total":148700492.26693,"log_pop":5.85,"log_mass":8.172312,"log_pop_c":0.704122,"log_mass_c":0.581017,"lat":47.3386059603944,"lon":123.97212236546},{"country_iso":"CHN","city_id":10558,"city":"Hancheng","pop_total":67287.9991057452,"mass_total":25856141.010299,"log_pop":4.827938,"log_mass":7.412564,"log_pop_c":-0.317941,"log_mass_c":-0.178732,"lat":35.4647750573259,"lon":110.437274576234},{"country_iso":"CHN","city_id":10560,"city":"Yongchuan","pop_total":197436.288410407,"mass_total":46640926.0245445,"log_pop":5.295427,"log_mass":7.668767,"log_pop_c":0.149549,"log_mass_c":0.077472,"lat":29.3509826443045,"lon":105.907941501236},{"country_iso":"CHN","city_id":10563,"city":"Dali","pop_total":59825.139253144,"mass_total":13818445.4244541,"log_pop":4.776884,"log_mass":7.140459,"log_pop_c":-0.368995,"log_mass_c":-0.450836,"lat":34.8075204298733,"lon":109.933787429655},{"country_iso":"CHN","city_id":10564,"city":"Jiexiu","pop_total":104690.687874752,"mass_total":31988640.6667733,"log_pop":5.019908,"log_mass":7.504996,"log_pop_c":-0.12597,"log_mass_c":-0.0863,"lat":37.0320665738947,"lon":111.91302089763},{"country_iso":"CHN","city_id":10566,"city":"Quxian","pop_total":79214.2610677533,"mass_total":11274567.4257485,"log_pop":4.898803,"log_mass":7.0521,"log_pop_c":-0.247075,"log_mass_c":-0.539196,"lat":30.8355292825524,"lon":106.967899897013},{"country_iso":"CHN","city_id":10569,"city":"Xuanwei","pop_total":95871.1401198181,"mass_total":27803487.4779961,"log_pop":4.981688,"log_mass":7.444099,"log_pop_c":-0.16419,"log_mass_c":-0.147196,"lat":26.2358591430665,"lon":104.124086120807},{"country_iso":"CHN","city_id":10570,"city":"Pingyao","pop_total":113014.840348861,"mass_total":34919090.6432588,"log_pop":5.053135,"log_mass":7.543063,"log_pop_c":-0.092743,"log_mass_c":-0.048232,"lat":37.2025758823949,"lon":112.175734939652},{"country_iso":"CHN","city_id":10571,"city":"Hejin","pop_total":51203.0350810565,"mass_total":19058512.6468339,"log_pop":4.709296,"log_mass":7.280089,"log_pop_c":-0.436583,"log_mass_c":-0.311206,"lat":35.5900272455431,"lon":110.709660025488},{"country_iso":"CHN","city_id":10572,"city":"Qi","pop_total":55176.5086551236,"mass_total":16270332.1938712,"log_pop":4.741754,"log_mass":7.211396,"log_pop_c":-0.404124,"log_mass_c":-0.379899,"lat":37.3615060582667,"lon":112.323101987407},{"country_iso":"CHN","city_id":10573,"city":"Qujing","pop_total":279132.002577844,"mass_total":91195927.0626218,"log_pop":5.44581,"log_mass":7.959975,"log_pop_c":0.299931,"log_mass_c":0.36868,"lat":25.5185264645612,"lon":103.811553158612},{"country_iso":"CHN","city_id":10574,"city":"Jianshui","pop_total":81835.6792094105,"mass_total":24998793.201719,"log_pop":4.912943,"log_mass":7.397919,"log_pop_c":-0.232936,"log_mass_c":-0.193376,"lat":23.6291713944614,"lon":102.835293841311},{"country_iso":"CHN","city_id":10577,"city":"Bishan","pop_total":124703.209360908,"mass_total":27577722.2040222,"log_pop":5.095878,"log_mass":7.440558,"log_pop_c":-0.050001,"log_mass_c":-0.150737,"lat":29.5839634069034,"lon":106.222898480065},{"country_iso":"CHN","city_id":10579,"city":"Jinzhong","pop_total":285153.873562789,"mass_total":63915588.9367606,"log_pop":5.455079,"log_mass":7.805607,"log_pop_c":0.309201,"log_mass_c":0.214311,"lat":37.6875302293315,"lon":112.722967575743},{"country_iso":"CHN","city_id":10580,"city":"Beibei","pop_total":176279.646546123,"mass_total":27507772.1063452,"log_pop":5.246202,"log_mass":7.439455,"log_pop_c":0.100324,"log_mass_c":-0.15184,"lat":29.8126185993201,"lon":106.416445204432},{"country_iso":"CHN","city_id":10581,"city":"Chenjiaqiao","pop_total":51209.489680315,"mass_total":22314492.4077316,"log_pop":4.70935,"log_mass":7.348587,"log_pop_c":-0.436528,"log_mass_c":-0.242708,"lat":29.6115798158492,"lon":106.312514100434},{"country_iso":"CHN","city_id":10584,"city":"Huailai","pop_total":65945.2734029494,"mass_total":25236027.3378291,"log_pop":4.819184,"log_mass":7.402021,"log_pop_c":-0.326695,"log_mass_c":-0.189274,"lat":40.4019542994463,"lon":115.516368838933},{"country_iso":"CHN","city_id":10585,"city":"Huozhou","pop_total":75125.7179100841,"mass_total":18286808.7641049,"log_pop":4.875789,"log_mass":7.262138,"log_pop_c":-0.27009,"log_mass_c":-0.329157,"lat":36.5742114812281,"lon":111.732927113276},{"country_iso":"CHN","city_id":10586,"city":"Hejiang","pop_total":53363.3012206994,"mass_total":8928477.50539036,"log_pop":4.727243,"log_mass":6.950777,"log_pop_c":-0.418636,"log_mass_c":-0.640518,"lat":28.8126690486512,"lon":105.844485409917},{"country_iso":"CHN","city_id":10590,"city":"Dazhou","pop_total":254401.917247389,"mass_total":52689925.7320532,"log_pop":5.40552,"log_mass":7.721728,"log_pop_c":0.259642,"log_mass_c":0.130432,"lat":31.2055142173726,"lon":107.484814011137},{"country_iso":"CHN","city_id":10599,"city":"Jishan","pop_total":50213.6726491666,"mass_total":12223732.3974963,"log_pop":4.700822,"log_mass":7.087204,"log_pop_c":-0.445056,"log_mass_c":-0.504092,"lat":35.6036002575932,"lon":110.971260571665},{"country_iso":"CHN","city_id":10600,"city":"Jiangjin","pop_total":147834.381340692,"mass_total":41512551.8907576,"log_pop":5.169775,"log_mass":7.618179,"log_pop_c":0.023897,"log_mass_c":0.026884,"lat":29.2778704057788,"lon":106.26799212363},{"country_iso":"CHN","city_id":10601,"city":"Mile","pop_total":53602.2723116248,"mass_total":22422402.4407174,"log_pop":4.729183,"log_mass":7.350682,"log_pop_c":-0.416695,"log_mass_c":-0.240613,"lat":24.4122007809209,"lon":103.423086356488},{"country_iso":"CHN","city_id":10603,"city":"Dazhu","pop_total":85076.5736002399,"mass_total":19962005.9279767,"log_pop":4.92981,"log_mass":7.300204,"log_pop_c":-0.216068,"log_mass_c":-0.291091,"lat":30.7425393868876,"lon":107.211242786009},{"country_iso":"CHN","city_id":10604,"city":"LinShui","pop_total":86982.0299712667,"mass_total":16669694.8733084,"log_pop":4.93943,"log_mass":7.221928,"log_pop_c":-0.206449,"log_mass_c":-0.369368,"lat":30.3379091369581,"lon":106.925483978602},{"country_iso":"CHN","city_id":10607,"city":"Chongqing","pop_total":3380176.51995719,"mass_total":685670659.498159,"log_pop":6.528939,"log_mass":8.836116,"log_pop_c":1.383061,"log_mass_c":1.24482,"lat":29.5538394313016,"lon":106.52557331505},{"country_iso":"CHN","city_id":10614,"city":"Linfen","pop_total":354112.481070025,"mass_total":90955495.4963622,"log_pop":5.549141,"log_mass":7.958829,"log_pop_c":0.403263,"log_mass_c":0.367534,"lat":36.0777592691706,"lon":111.521160275057},{"country_iso":"CHN","city_id":10615,"city":"Yongji","pop_total":72901.2248473822,"mass_total":24072062.7104263,"log_pop":4.862735,"log_mass":7.381513,"log_pop_c":-0.283144,"log_mass_c":-0.209782,"lat":34.8727905985754,"lon":110.457486977328},{"country_iso":"CHN","city_id":10619,"city":"Hongtong","pop_total":69862.125706187,"mass_total":22971760.5012556,"log_pop":4.844242,"log_mass":7.361194,"log_pop_c":-0.301637,"log_mass_c":-0.230101,"lat":36.2441782041664,"lon":111.677771865697},{"country_iso":"CHN","city_id":10626,"city":"Kaiyuan","pop_total":64152.3048910805,"mass_total":21472454.957298,"log_pop":4.807212,"log_mass":7.331882,"log_pop_c":-0.338666,"log_mass_c":-0.259414,"lat":23.7241829064215,"lon":103.253444307429},{"country_iso":"CHN","city_id":10628,"city":"Linyi","pop_total":53088.3437247015,"mass_total":13753365.829678,"log_pop":4.724999,"log_mass":7.138409,"log_pop_c":-0.420879,"log_mass_c":-0.452886,"lat":35.1449651466721,"lon":110.773452290942},{"country_iso":"CHN","city_id":10631,"city":"Xinjiang","pop_total":51250.291726564,"mass_total":12055149.5563267,"log_pop":4.709696,"log_mass":7.081173,"log_pop_c":-0.436182,"log_mass_c":-0.510123,"lat":35.6098456309174,"lon":111.236334938505},{"country_iso":"CHN","city_id":10632,"city":"Liupanshui","pop_total":165630.714457007,"mass_total":37846433.5239141,"log_pop":5.219141,"log_mass":7.578025,"log_pop_c":0.073262,"log_mass_c":-0.01327,"lat":26.5765759753292,"lon":104.855765186028},{"country_iso":"CHN","city_id":10634,"city":"Ankang","pop_total":169456.259454875,"mass_total":56419664.6241679,"log_pop":5.229058,"log_mass":7.751431,"log_pop_c":0.083179,"log_mass_c":0.160135,"lat":32.7046315958032,"lon":109.009004749163},{"country_iso":"CHN","city_id":10635,"city":"Gejiu","pop_total":84843.7529171553,"mass_total":12245372.8378125,"log_pop":4.92862,"log_mass":7.087972,"log_pop_c":-0.217259,"log_mass_c":-0.503323,"lat":23.3580720083141,"lon":103.149777169476},{"country_iso":"CHN","city_id":10636,"city":"Yanqing","pop_total":71836.4080421728,"mass_total":19391735.4428185,"log_pop":4.856345,"log_mass":7.287617,"log_pop_c":-0.289534,"log_mass_c":-0.303679,"lat":40.4541641866035,"lon":115.975201769776},{"country_iso":"CHN","city_id":10638,"city":"Bijie","pop_total":149263.836906081,"mass_total":16281518.4027345,"log_pop":5.173955,"log_mass":7.211695,"log_pop_c":0.028076,"log_mass_c":-0.379601,"lat":27.3037175199165,"lon":105.283347461254},{"country_iso":"CHN","city_id":10639,"city":"Houma","pop_total":103629.674695484,"mass_total":20106317.9266609,"log_pop":5.015484,"log_mass":7.303333,"log_pop_c":-0.130394,"log_mass_c":-0.287963,"lat":35.6179660818957,"lon":111.346629389712},{"country_iso":"CHN","city_id":10650,"city":"Yangquan","pop_total":219676.616676788,"mass_total":71157639.216271,"log_pop":5.341784,"log_mass":7.852222,"log_pop_c":0.195905,"log_mass_c":0.260926,"lat":37.8587001237308,"lon":113.542706569008},{"country_iso":"CHN","city_id":10652,"city":"Dianjiang","pop_total":78945.6867666516,"mass_total":19518950.6841068,"log_pop":4.897328,"log_mass":7.290456,"log_pop_c":-0.24855,"log_mass_c":-0.300839,"lat":30.3254289194915,"lon":107.346707016115},{"country_iso":"CHN","city_id":10653,"city":"Wenxi","pop_total":60117.0213295193,"mass_total":18009561.3226268,"log_pop":4.778997,"log_mass":7.255503,"log_pop_c":-0.366881,"log_mass_c":-0.335792,"lat":35.354952652452,"lon":111.220543007481},{"country_iso":"CHN","city_id":10654,"city":"Yuncheng","pop_total":269648.18551193,"mass_total":83720811.4628341,"log_pop":5.430798,"log_mass":7.922833,"log_pop_c":0.284919,"log_mass_c":0.331538,"lat":35.051559404251,"lon":111.006565404028},{"country_iso":"CHN","city_id":10656,"city":"Ruicheng","pop_total":50448.6891312075,"mass_total":10193474.4155888,"log_pop":4.70285,"log_mass":7.008322,"log_pop_c":-0.443029,"log_mass_c":-0.582973,"lat":34.6967725452921,"lon":110.684911280247},{"country_iso":"CHN","city_id":10658,"city":"Changshou","pop_total":88833.907757127,"mass_total":20539907.8758998,"log_pop":4.948579,"log_mass":7.312598,"log_pop_c":-0.1973,"log_mass_c":-0.278697,"lat":29.8464933557463,"lon":107.07060818356},{"country_iso":"CHN","city_id":10659,"city":"Mengzi","pop_total":78423.2055976531,"mass_total":26750802.7729567,"log_pop":4.894445,"log_mass":7.427337,"log_pop_c":-0.251434,"log_mass_c":-0.163959,"lat":23.3678042934036,"lon":103.384450562482},{"country_iso":"CHN","city_id":10663,"city":"Bei'an","pop_total":54807.6561320032,"mass_total":24556739.7143178,"log_pop":4.738841,"log_mass":7.390171,"log_pop_c":-0.407037,"log_mass_c":-0.201125,"lat":48.2449193775959,"lon":126.494729661455},{"country_iso":"CHN","city_id":10664,"city":"Yicheng","pop_total":50977.1826062595,"mass_total":15901521.5410177,"log_pop":4.707376,"log_mass":7.201439,"log_pop_c":-0.438503,"log_mass_c":-0.389857,"lat":35.7354819546275,"lon":111.704019957213},{"country_iso":"CHN","city_id":10665,"city":"Qijiang","pop_total":72855.4359392671,"mass_total":11499638.2643258,"log_pop":4.862462,"log_mass":7.060684,"log_pop_c":-0.283416,"log_mass_c":-0.530611,"lat":29.0368762763276,"lon":106.656313712988},{"country_iso":"CHN","city_id":10669,"city":"Pingding","pop_total":70694.9782917086,"mass_total":24687647.506796,"log_pop":4.849389,"log_mass":7.39248,"log_pop_c":-0.29649,"log_mass_c":-0.198816,"lat":37.7916823659541,"lon":113.614544485393},{"country_iso":"CHN","city_id":10674,"city":"Liangping","pop_total":53765.7039454308,"mass_total":15419660.9081304,"log_pop":4.730505,"log_mass":7.188075,"log_pop_c":-0.415373,"log_mass_c":-0.403221,"lat":30.6647464715821,"lon":107.780299694515},{"country_iso":"CHN","city_id":10684,"city":"Pingshan","pop_total":56781.1470029364,"mass_total":20643417.112919,"log_pop":4.754204,"log_mass":7.314782,"log_pop_c":-0.391674,"log_mass_c":-0.276514,"lat":38.247997509978,"lon":114.193553966315},{"country_iso":"CHN","city_id":10685,"city":"Changping","pop_total":239780.995361168,"mass_total":60250073.3259996,"log_pop":5.379815,"log_mass":7.779958,"log_pop_c":0.233936,"log_mass_c":0.188662,"lat":40.2062598491323,"lon":116.21354165579},{"country_iso":"CHN","city_id":10687,"city":"Beijing","pop_total":14345566.497625,"mass_total":2717111470.41312,"log_pop":7.156718,"log_mass":9.434107,"log_pop_c":2.010839,"log_mass_c":1.842812,"lat":39.8991891330259,"lon":116.350126082987},{"country_iso":"CHN","city_id":10688,"city":"Baicheng","pop_total":203572.950789065,"mass_total":55172735.4059352,"log_pop":5.30872,"log_mass":7.741725,"log_pop_c":0.162842,"log_mass_c":0.150429,"lat":45.6117530322275,"lon":122.832695143708},{"country_iso":"CHN","city_id":10691,"city":"Lingbao","pop_total":98594.4952071938,"mass_total":30427876.8499563,"log_pop":4.993853,"log_mass":7.483272,"log_pop_c":-0.152026,"log_mass_c":-0.108024,"lat":34.52837775999,"lon":110.891071242448},{"country_iso":"CHN","city_id":10696,"city":"Zhenlai","pop_total":54997.9811525854,"mass_total":16849992.5076578,"log_pop":4.740347,"log_mass":7.2266,"log_pop_c":-0.405532,"log_mass_c":-0.364696,"lat":45.8485922765143,"lon":123.197631295974},{"country_iso":"CHN","city_id":10706,"city":"Sanmenxia","pop_total":179876.747094754,"mass_total":43845555.2948609,"log_pop":5.254975,"log_mass":7.641926,"log_pop_c":0.109097,"log_mass_c":0.05063,"lat":34.7746207091096,"lon":111.19490955276},{"country_iso":"CHN","city_id":10708,"city":"Kaizhou","pop_total":59650.5557503195,"mass_total":20802952.426304,"log_pop":4.775614,"log_mass":7.318125,"log_pop_c":-0.370264,"log_mass_c":-0.27317,"lat":31.1744685589413,"lon":108.400718015938},{"country_iso":"CHN","city_id":10716,"city":"Nanchuan","pop_total":50080.405526265,"mass_total":15142268.8971936,"log_pop":4.699668,"log_mass":7.180191,"log_pop_c":-0.446211,"log_mass_c":-0.411104,"lat":29.1566637305307,"lon":107.118021027777},{"country_iso":"CHN","city_id":10718,"city":"Shijiazhuang","pop_total":2630517.73028265,"mass_total":675700117.267662,"log_pop":6.420041,"log_mass":8.829754,"log_pop_c":1.274163,"log_mass_c":1.238459,"lat":38.0656276754462,"lon":114.514331188948},{"country_iso":"CHN","city_id":10719,"city":"Huairou","pop_total":182979.987833489,"mass_total":46776134.5990839,"log_pop":5.262404,"log_mass":7.670024,"log_pop_c":0.116525,"log_mass_c":0.078729,"lat":40.3149833144282,"lon":116.639413306522},{"country_iso":"CHN","city_id":10721,"city":"Chifeng","pop_total":387616.295995983,"mass_total":128577846.946809,"log_pop":5.588402,"log_mass":8.109166,"log_pop_c":0.442524,"log_mass_c":0.517871,"lat":42.2733463570762,"lon":118.931563543818},{"country_iso":"CHN","city_id":10724,"city":"Taonan","pop_total":88416.0979484794,"mass_total":26392542.7724602,"log_pop":4.946531,"log_mass":7.421481,"log_pop_c":-0.199347,"log_mass_c":-0.169814,"lat":45.3338734928796,"lon":122.774683348969},{"country_iso":"CHN","city_id":10725,"city":"Liuzhi","pop_total":56937.2655330153,"mass_total":11569666.3482491,"log_pop":4.755397,"log_mass":7.063321,"log_pop_c":-0.390482,"log_mass_c":-0.527975,"lat":26.2307919456459,"lon":105.455273540807},{"country_iso":"CHN","city_id":10727,"city":"Xinle","pop_total":76876.0190873651,"mass_total":23600123.9193395,"log_pop":4.885791,"log_mass":7.372914,"log_pop_c":-0.260088,"log_mass_c":-0.218381,"lat":38.3455869663831,"lon":114.692313627271},{"country_iso":"CHN","city_id":10729,"city":"Wanzhou","pop_total":162043.129947662,"mass_total":58278655.2368622,"log_pop":5.209631,"log_mass":7.76551,"log_pop_c":0.063752,"log_mass_c":0.174214,"lat":30.7904926090158,"lon":108.389920301775},{"country_iso":"CHN","city_id":10731,"city":"Mancheng","pop_total":87819.6201098521,"mass_total":31512774.2911342,"log_pop":4.943592,"log_mass":7.498487,"log_pop_c":-0.202287,"log_mass_c":-0.092809,"lat":38.9546633352442,"lon":115.319585211716},{"country_iso":"CHN","city_id":10733,"city":"Xingyi","pop_total":121612.234144039,"mass_total":34143747.5030359,"log_pop":5.084977,"log_mass":7.533311,"log_pop_c":-0.060901,"log_mass_c":-0.057984,"lat":25.1024297748446,"lon":104.893917788457},{"country_iso":"CHN","city_id":10735,"city":"Renhuai","pop_total":54685.2361530622,"mass_total":15403663.95533,"log_pop":4.73787,"log_mass":7.187624,"log_pop_c":-0.408008,"log_mass_c":-0.403671,"lat":27.8058698673254,"lon":106.404325491149},{"country_iso":"CHN","city_id":10736,"city":"Zhong","pop_total":63616.1028862317,"mass_total":12280941.1198989,"log_pop":4.803567,"log_mass":7.089232,"log_pop_c":-0.342311,"log_mass_c":-0.502064,"lat":30.3101219952801,"lon":108.043425989454},{"country_iso":"CHN","city_id":10737,"city":"Miyun","pop_total":184827.612667455,"mass_total":45667252.7521354,"log_pop":5.266767,"log_mass":7.659605,"log_pop_c":0.120888,"log_mass_c":0.068309,"lat":40.3752567040136,"lon":116.834249557442},{"country_iso":"CHN","city_id":10738,"city":"Shunyi","pop_total":297123.83344147,"mass_total":132711057.60789,"log_pop":5.472937,"log_mass":8.122907,"log_pop_c":0.327059,"log_mass_c":0.531612,"lat":40.1090744997722,"lon":116.60290126685},{"country_iso":"CHN","city_id":10741,"city":"Dingzhou","pop_total":160373.301886038,"mass_total":46254174.9117392,"log_pop":5.205132,"log_mass":7.665151,"log_pop_c":0.059254,"log_mass_c":0.073856,"lat":38.5204091400577,"lon":114.971710388124},{"country_iso":"CHN","city_id":10742,"city":"Qianxi","pop_total":65645.8134299793,"mass_total":14741715.6099461,"log_pop":4.817207,"log_mass":7.168548,"log_pop_c":-0.328671,"log_mass_c":-0.422747,"lat":27.0280881874971,"lon":106.022253227681},{"country_iso":"CHN","city_id":10744,"city":"Zhuozhou","pop_total":124515.248084691,"mass_total":49861351.9871683,"log_pop":5.095223,"log_mass":7.697764,"log_pop_c":-0.050656,"log_mass_c":0.106469,"lat":39.4941083385341,"lon":115.974817214125},{"country_iso":"CHN","city_id":10747,"city":"Ranghulu","pop_total":156980.135508938,"mass_total":66536207.6631225,"log_pop":5.195845,"log_mass":7.823058,"log_pop_c":0.049966,"log_mass_c":0.231763,"lat":46.6226417991324,"lon":124.848016107225},{"country_iso":"CHN","city_id":10750,"city":"Gaobeidian","pop_total":185690.872329481,"mass_total":52827922.515736,"log_pop":5.268791,"log_mass":7.722864,"log_pop_c":0.122912,"log_mass_c":0.131568,"lat":39.3085100217651,"lon":115.847420512635},{"country_iso":"CHN","city_id":10753,"city":"Baoding","pop_total":985626.204985624,"mass_total":245698068.333546,"log_pop":5.993712,"log_mass":8.390402,"log_pop_c":0.847834,"log_mass_c":0.799106,"lat":38.8517093703213,"lon":115.483154980198},{"country_iso":"CHN","city_id":10758,"city":"Xushui","pop_total":98475.1802858413,"mass_total":40199860.3903623,"log_pop":4.993327,"log_mass":7.604225,"log_pop_c":-0.152552,"log_mass_c":0.012929,"lat":39.0194081447474,"lon":115.670631606131},{"country_iso":"CHN","city_id":10759,"city":"Yunyang","pop_total":77217.2628131979,"mass_total":12671938.659385,"log_pop":4.887714,"log_mass":7.102843,"log_pop_c":-0.258164,"log_mass_c":-0.488452,"lat":30.9379696706666,"lon":108.704954533415},{"country_iso":"CHN","city_id":10762,"city":"Wenshan","pop_total":103438.067714009,"mass_total":38996431.1082159,"log_pop":5.01468,"log_mass":7.591025,"log_pop_c":-0.131198,"log_mass_c":-0.000271,"lat":23.3689824636741,"lon":104.243434862639},{"country_iso":"CHN","city_id":10774,"city":"Yangcheng","pop_total":63057.8099514017,"mass_total":11788819.0725001,"log_pop":4.799739,"log_mass":7.07147,"log_pop_c":-0.34614,"log_mass_c":-0.519825,"lat":35.4838202252201,"lon":112.410434291502},{"country_iso":"CHN","city_id":10779,"city":"Daqing","pop_total":246595.303220061,"mass_total":117727595.331571,"log_pop":5.391985,"log_mass":8.070878,"log_pop_c":0.246106,"log_mass_c":0.479583,"lat":46.5739139016053,"lon":125.129498743175},{"country_iso":"CHN","city_id":10781,"city":"Lucheng","pop_total":52773.2435970379,"mass_total":15844524.8468967,"log_pop":4.722414,"log_mass":7.199879,"log_pop_c":-0.423465,"log_mass_c":-0.391416,"lat":36.3326429519887,"lon":113.229132905032},{"country_iso":"CHN","city_id":10782,"city":"Changzhi","pop_total":365724.279401146,"mass_total":90362590.4110212,"log_pop":5.563154,"log_mass":7.955989,"log_pop_c":0.417275,"log_mass_c":0.364693,"lat":36.1813656440535,"lon":113.115662354122},{"country_iso":"CHN","city_id":10785,"city":"Wuji","pop_total":54355.9455801244,"mass_total":15642529.9237141,"log_pop":4.735247,"log_mass":7.194307,"log_pop_c":-0.410631,"log_mass_c":-0.396988,"lat":38.169421596016,"lon":114.968771238702},{"country_iso":"CHN","city_id":10786,"city":"Yanjiao","pop_total":137953.222012025,"mass_total":62841829.824836,"log_pop":5.139732,"log_mass":7.798249,"log_pop_c":-0.006147,"log_mass_c":0.206953,"lat":39.9355775720994,"lon":116.821137852577},{"country_iso":"CHN","city_id":10791,"city":"Anshun","pop_total":202703.073561954,"mass_total":34054681.3119851,"log_pop":5.30686,"log_mass":7.532177,"log_pop_c":0.160982,"log_mass_c":-0.059119,"lat":26.2530023547118,"lon":105.946783970764},{"country_iso":"CHN","city_id":10792,"city":"Chengde","pop_total":96094.5656474366,"mass_total":22880759.8832558,"log_pop":4.982699,"log_mass":7.35947,"log_pop_c":-0.16318,"log_mass_c":-0.231825,"lat":40.9588732630989,"lon":117.924917155481},{"country_iso":"CHN","city_id":10793,"city":"Gaocheng","pop_total":97088.1067784862,"mass_total":25737605.117439,"log_pop":4.987166,"log_mass":7.410568,"log_pop_c":-0.158712,"log_mass_c":-0.180727,"lat":38.0255497711117,"lon":114.854251726049},{"country_iso":"CHN","city_id":10796,"city":"Gu'an","pop_total":63391.2230178506,"mass_total":25113917.2399449,"log_pop":4.802029,"log_mass":7.399914,"log_pop_c":-0.343849,"log_mass_c":-0.191381,"lat":39.4340832791788,"lon":116.312202028066},{"country_iso":"CHN","city_id":10801,"city":"Yuanbaoshan","pop_total":52981.6275784638,"mass_total":26185545.2371763,"log_pop":4.724125,"log_mass":7.418062,"log_pop_c":-0.421753,"log_mass_c":-0.173234,"lat":42.0443052292836,"lon":119.271148753958},{"country_iso":"CHN","city_id":10802,"city":"Pinggu","pop_total":170090.428914995,"mass_total":32719037.7535615,"log_pop":5.23068,"log_mass":7.514801,"log_pop_c":0.084801,"log_mass_c":-0.076495,"lat":40.1438350328689,"lon":117.112489412401},{"country_iso":"CHN","city_id":10803,"city":"Liangmatai","pop_total":90087.9988335413,"mass_total":28187145.4354415,"log_pop":4.954667,"log_mass":7.450051,"log_pop_c":-0.191211,"log_mass_c":-0.141244,"lat":39.1199665611511,"lon":116.0358442047},{"country_iso":"CHN","city_id":10804,"city":"Anguo","pop_total":57139.5607226409,"mass_total":14501048.0353603,"log_pop":4.756937,"log_mass":7.161399,"log_pop_c":-0.388941,"log_mass_c":-0.429896,"lat":38.4173200690915,"lon":115.321839593618},{"country_iso":"CHN","city_id":10809,"city":"Zunyi","pop_total":408478.333292986,"mass_total":67612636.1639053,"log_pop":5.611169,"log_mass":7.830028,"log_pop_c":0.465291,"log_mass_c":0.238732,"lat":27.6912793681264,"lon":106.933788134282},{"country_iso":"CHN","city_id":10810,"city":"Gaoping","pop_total":59319.5531295533,"mass_total":19047797.3764279,"log_pop":4.773198,"log_mass":7.279845,"log_pop_c":-0.372681,"log_mass_c":-0.311451,"lat":35.7883011230115,"lon":112.928050481244},{"country_iso":"CHN","city_id":10811,"city":"Jinzhou","pop_total":99344.3385180205,"mass_total":35421122.2377945,"log_pop":4.997143,"log_mass":7.549262,"log_pop_c":-0.148735,"log_mass_c":-0.042033,"lat":38.0319665296791,"lon":115.039941852289},{"country_iso":"CHN","city_id":10812,"city":"Zhao","pop_total":77915.2675308256,"mass_total":22201832.210822,"log_pop":4.891623,"log_mass":7.346389,"log_pop_c":-0.254256,"log_mass_c":-0.244907,"lat":37.7493384834509,"lon":114.767620417961},{"country_iso":"CHN","city_id":10814,"city":"播州区","pop_total":54528.839717952,"mass_total":19577130.6657272,"log_pop":4.736626,"log_mass":7.291749,"log_pop_c":-0.409252,"log_mass_c":-0.299546,"lat":27.5556553014279,"lon":106.843130887975},{"country_iso":"CHN","city_id":10816,"city":"Sanhe","pop_total":79344.7282144467,"mass_total":22112425.2534207,"log_pop":4.899518,"log_mass":7.344636,"log_pop_c":-0.24636,"log_mass_c":-0.246659,"lat":39.989723697504,"lon":117.057251243458},{"country_iso":"CHN","city_id":10821,"city":"Li","pop_total":51608.2930325433,"mass_total":18646266.6837263,"log_pop":4.712719,"log_mass":7.270592,"log_pop_c":-0.433159,"log_mass_c":-0.320704,"lat":38.485411733668,"lon":115.560087308796},{"country_iso":"CHN","city_id":10827,"city":"Langfang","pop_total":369403.935202087,"mass_total":117818003.50908,"log_pop":5.567502,"log_mass":8.071212,"log_pop_c":0.421623,"log_mass_c":0.479916,"lat":39.5396023420316,"lon":116.717428102594},{"country_iso":"CHN","city_id":10833,"city":"Jincheng","pop_total":351188.655644423,"mass_total":60348804.27552,"log_pop":5.54554,"log_mass":7.780669,"log_pop_c":0.399662,"log_mass_c":0.189373,"lat":35.4991535854909,"lon":112.853979601803},{"country_iso":"CHN","city_id":10838,"city":"Xianghe","pop_total":70892.0230150144,"mass_total":32280217.1204753,"log_pop":4.850597,"log_mass":7.508936,"log_pop_c":-0.295281,"log_mass_c":-0.082359,"lat":39.7546352650082,"lon":117.004999695446},{"country_iso":"CHN","city_id":10840,"city":"Qingzhen","pop_total":73639.7466351163,"mass_total":22433570.170918,"log_pop":4.867112,"log_mass":7.350898,"log_pop_c":-0.278766,"log_mass_c":-0.240397,"lat":26.5438428057063,"lon":106.466396874294},{"country_iso":"CHN","city_id":10843,"city":"Jiyuan","pop_total":220572.39510812,"mass_total":68480349.3555237,"log_pop":5.343551,"log_mass":7.835566,"log_pop_c":0.197673,"log_mass_c":0.244271,"lat":35.0781660291626,"lon":112.573012192575},{"country_iso":"CHN","city_id":10845,"city":"Ningjin","pop_total":83819.5915214885,"mass_total":28149244.8079232,"log_pop":4.923346,"log_mass":7.449467,"log_pop_c":-0.222533,"log_mass_c":-0.141829,"lat":37.6235465341205,"lon":114.918236594732},{"country_iso":"CHN","city_id":10846,"city":"Anda","pop_total":171260.772940226,"mass_total":33628649.8000232,"log_pop":5.233658,"log_mass":7.526709,"log_pop_c":0.08778,"log_mass_c":-0.064586,"lat":46.4083791545021,"lon":125.327724338963},{"country_iso":"CHN","city_id":10847,"city":"Bazhou","pop_total":65617.433188214,"mass_total":31397202.4714468,"log_pop":4.817019,"log_mass":7.496891,"log_pop_c":-0.328859,"log_mass_c":-0.094404,"lat":39.1086865291868,"lon":116.395424635777},{"country_iso":"CHN","city_id":10849,"city":"Jizhou","pop_total":116639.585818714,"mass_total":37881293.5267088,"log_pop":5.066846,"log_mass":7.578425,"log_pop_c":-0.079032,"log_mass_c":-0.012871,"lat":40.0432454534872,"lon":117.39420067359},{"country_iso":"CHN","city_id":10850,"city":"Anping","pop_total":56922.4523793234,"mass_total":27042134.8620169,"log_pop":4.755284,"log_mass":7.432041,"log_pop_c":-0.390595,"log_mass_c":-0.159254,"lat":38.2314026097574,"lon":115.521731848172},{"country_iso":"CHN","city_id":10851,"city":"Xinji","pop_total":143998.465310252,"mass_total":44833048.334228,"log_pop":5.158358,"log_mass":7.651598,"log_pop_c":0.012479,"log_mass_c":0.060303,"lat":37.9155559128147,"lon":115.215419438478},{"country_iso":"CHN","city_id":10854,"city":"Guiyang","pop_total":1502221.75491317,"mass_total":278710802.060769,"log_pop":6.176734,"log_mass":8.445154,"log_pop_c":1.030856,"log_mass_c":0.853858,"lat":26.5988079199855,"lon":106.682128823198},{"country_iso":"CHN","city_id":10855,"city":"Hailun","pop_total":63357.8514733667,"mass_total":26754934.8601554,"log_pop":4.8018,"log_mass":7.427404,"log_pop_c":-0.344078,"log_mass_c":-0.163892,"lat":47.4659372416226,"lon":126.950179437791},{"country_iso":"CHN","city_id":10859,"city":"Xingtai","pop_total":590165.073595068,"mass_total":138897434.326007,"log_pop":5.770974,"log_mass":8.142694,"log_pop_c":0.625095,"log_mass_c":0.551399,"lat":37.0668463170221,"lon":114.487543289189},{"country_iso":"CHN","city_id":10860,"city":"Luoyang","pop_total":1198571.38463005,"mass_total":322812313.848416,"log_pop":6.078664,"log_mass":8.50895,"log_pop_c":0.932786,"log_mass_c":0.917655,"lat":34.6692852465723,"lon":112.432142485922},{"country_iso":"CHN","city_id":10861,"city":"Shiyan","pop_total":246785.442010918,"mass_total":66736066.0350863,"log_pop":5.39232,"log_mass":7.824361,"log_pop_c":0.246441,"log_mass_c":0.233065,"lat":32.6445556838414,"lon":110.750190237522},{"country_iso":"CHN","city_id":10864,"city":"Yunyang","pop_total":57496.6671677842,"mass_total":11263590.658566,"log_pop":4.759643,"log_mass":7.051677,"log_pop_c":-0.386236,"log_mass_c":-0.539619,"lat":32.8315834701386,"lon":110.811903876686},{"country_iso":"CHN","city_id":10865,"city":"Renqiu","pop_total":117367.254496685,"mass_total":54586491.2228302,"log_pop":5.069547,"log_mass":7.737085,"log_pop_c":-0.076331,"log_mass_c":0.14579,"lat":38.7002745499868,"lon":116.079885800249},{"country_iso":"CHN","city_id":10870,"city":"Wu'an","pop_total":143943.07447928,"mass_total":61433064.4645126,"log_pop":5.158191,"log_mass":7.788402,"log_pop_c":0.012312,"log_mass_c":0.197107,"lat":36.7126952381392,"lon":114.197975255107},{"country_iso":"CHN","city_id":10879,"city":"宝坻区","pop_total":187398.252951351,"mass_total":37649209.6246428,"log_pop":5.272766,"log_mass":7.575756,"log_pop_c":0.126887,"log_mass_c":-0.01554,"lat":39.7252152717791,"lon":117.293899890196},{"country_iso":"CHN","city_id":10880,"city":"Da'an","pop_total":90916.5705344815,"mass_total":12071924.7329351,"log_pop":4.958643,"log_mass":7.081777,"log_pop_c":-0.187235,"log_mass_c":-0.509519,"lat":45.4970749655842,"lon":124.289325131877},{"country_iso":"CHN","city_id":10881,"city":"Huaxi","pop_total":65346.1931924142,"mass_total":13467115.2939497,"log_pop":4.81522,"log_mass":7.129275,"log_pop_c":-0.330658,"log_mass_c":-0.462021,"lat":26.4270784538327,"lon":106.665307359407},{"country_iso":"CHN","city_id":10885,"city":"Bo'ai","pop_total":158879.377469326,"mass_total":62663345.5556215,"log_pop":5.201068,"log_mass":7.797014,"log_pop_c":0.055189,"log_mass_c":0.205718,"lat":35.1852782650942,"lon":113.038715217917},{"country_iso":"CHN","city_id":10887,"city":"Shengzhou","pop_total":55393.0322651634,"mass_total":9118987.65436064,"log_pop":4.743455,"log_mass":6.959947,"log_pop_c":-0.402423,"log_mass_c":-0.631349,"lat":38.0075639711479,"lon":115.530870468176},{"country_iso":"CHN","city_id":10889,"city":"Yongnian","pop_total":255395.082844806,"mass_total":87064545.9622316,"log_pop":5.407213,"log_mass":7.939841,"log_pop_c":0.261334,"log_mass_c":0.348546,"lat":36.8147928269848,"lon":114.508421579919},{"country_iso":"CHN","city_id":10893,"city":"Qinyang","pop_total":71634.0974447937,"mass_total":26494882.624162,"log_pop":4.85512,"log_mass":7.423162,"log_pop_c":-0.290759,"log_mass_c":-0.168133,"lat":35.091430932756,"lon":112.929790262841},{"country_iso":"CHN","city_id":10896,"city":"Shengfang","pop_total":95717.5153495466,"mass_total":57380645.414633,"log_pop":4.980991,"log_mass":7.758765,"log_pop_c":-0.164887,"log_mass_c":0.16747,"lat":39.08482674869,"lon":116.716606931037},{"country_iso":"CHN","city_id":10897,"city":"Mengzhou","pop_total":80181.4010000482,"mass_total":25056215.2716505,"log_pop":4.904074,"log_mass":7.398915,"log_pop_c":-0.241805,"log_mass_c":-0.19238,"lat":34.907310139734,"lon":112.781883704842},{"country_iso":"CHN","city_id":10899,"city":"Linzhou","pop_total":109317.467889646,"mass_total":37774155.3210223,"log_pop":5.03869,"log_mass":7.577195,"log_pop_c":-0.107189,"log_mass_c":-0.014101,"lat":36.068181982803,"lon":113.819205081435},{"country_iso":"CHN","city_id":10901,"city":"武清区","pop_total":151512.404031963,"mass_total":47310219.1991862,"log_pop":5.180448,"log_mass":7.674955,"log_pop_c":0.03457,"log_mass_c":0.08366,"lat":39.3742279373015,"lon":117.068670483888},{"country_iso":"CHN","city_id":10902,"city":"Hejian","pop_total":82518.2894375558,"mass_total":25982835.8271517,"log_pop":4.91655,"log_mass":7.414687,"log_pop_c":-0.229328,"log_mass_c":-0.176609,"lat":38.4407171367967,"lon":116.094272307392},{"country_iso":"CHN","city_id":10903,"city":"Fengfeng","pop_total":169174.86616162,"mass_total":37004693.7380738,"log_pop":5.228336,"log_mass":7.568257,"log_pop_c":0.082457,"log_mass_c":-0.023039,"lat":36.4392538309733,"lon":114.20508872859},{"country_iso":"CHN","city_id":10905,"city":"Zunhua","pop_total":124380.551037634,"mass_total":44033173.5973453,"log_pop":5.094752,"log_mass":7.64378,"log_pop_c":-0.051126,"log_mass_c":0.052485,"lat":40.1888801516833,"lon":117.964139908186},{"country_iso":"CHN","city_id":10906,"city":"Yichuan","pop_total":92479.6589443679,"mass_total":28137808.3212063,"log_pop":4.966046,"log_mass":7.44929,"log_pop_c":-0.179832,"log_mass_c":-0.142005,"lat":34.4078021719587,"lon":112.413661346918},{"country_iso":"CHN","city_id":10908,"city":"Yanshi","pop_total":113068.68622594,"mass_total":35491944.2795056,"log_pop":5.053342,"log_mass":7.55013,"log_pop_c":-0.092536,"log_mass_c":-0.041166,"lat":34.7274488259931,"lon":112.766916519335},{"country_iso":"CHN","city_id":10910,"city":"Jiaozuo","pop_total":552714.923775085,"mass_total":135464220.603873,"log_pop":5.742501,"log_mass":8.131825,"log_pop_c":0.596623,"log_mass_c":0.540529,"lat":35.2462763089334,"lon":113.246027877692},{"country_iso":"CHN","city_id":10911,"city":"Suiling","pop_total":56923.1621925088,"mass_total":17777124.3182415,"log_pop":4.755289,"log_mass":7.249862,"log_pop_c":-0.390589,"log_mass_c":-0.341434,"lat":47.2459774240887,"lon":127.09971514886},{"country_iso":"CHN","city_id":10912,"city":"Handan","pop_total":904763.892605944,"mass_total":210483105.78015,"log_pop":5.956535,"log_mass":8.323217,"log_pop_c":0.810657,"log_mass_c":0.731922,"lat":36.5998500223036,"lon":114.487507941971},{"country_iso":"CHN","city_id":10914,"city":"Wangkui","pop_total":58741.3640667095,"mass_total":16630532.190304,"log_pop":4.768944,"log_mass":7.220906,"log_pop_c":-0.376934,"log_mass_c":-0.370389,"lat":46.8307217996137,"lon":126.480234847183},{"country_iso":"CHN","city_id":10917,"city":"Yutian","pop_total":91732.5060035677,"mass_total":29542718.9914273,"log_pop":4.962523,"log_mass":7.47045,"log_pop_c":-0.183355,"log_mass_c":-0.120845,"lat":39.8834933111982,"lon":117.744806152094},{"country_iso":"CHN","city_id":10919,"city":"双口","pop_total":66826.5334024283,"mass_total":30065887.8175944,"log_pop":4.824949,"log_mass":7.478074,"log_pop_c":-0.320929,"log_mass_c":-0.113221,"lat":39.2633685636194,"lon":117.083804514844},{"country_iso":"CHN","city_id":10920,"city":"Xichuan","pop_total":58935.3095167265,"mass_total":20579820.7779574,"log_pop":4.770376,"log_mass":7.313442,"log_pop_c":-0.375503,"log_mass_c":-0.277854,"lat":33.1275820848964,"lon":111.491346317296},{"country_iso":"CHN","city_id":10922,"city":"Tianjin","pop_total":5385379.61931225,"mass_total":842417748.010467,"log_pop":6.731216,"log_mass":8.925528,"log_pop_c":1.585338,"log_mass_c":1.334232,"lat":39.1194744183307,"lon":117.213254929018},{"country_iso":"CHN","city_id":10923,"city":"Anyang","pop_total":867782.267848107,"mass_total":222308523.427024,"log_pop":5.938411,"log_mass":8.346956,"log_pop_c":0.792532,"log_mass_c":0.755661,"lat":36.1104473915481,"lon":114.283004410181},{"country_iso":"CHN","city_id":10924,"city":"Huiguo","pop_total":118004.306296844,"mass_total":37091079.3255837,"log_pop":5.071898,"log_mass":7.569269,"log_pop_c":-0.073981,"log_mass_c":-0.022026,"lat":34.6814091227806,"lon":112.871141362704},{"country_iso":"CHN","city_id":10925,"city":"Huaguanying","pop_total":52905.4023780781,"mass_total":23848695.409883,"log_pop":4.7235,"log_mass":7.377465,"log_pop_c":-0.422378,"log_mass_c":-0.213831,"lat":36.4770422432377,"lon":114.444773454503},{"country_iso":"CHN","city_id":10926,"city":"Tongliao","pop_total":365860.98206952,"mass_total":108156200.142308,"log_pop":5.563316,"log_mass":8.034051,"log_pop_c":0.417438,"log_mass_c":0.442756,"lat":43.6146855409398,"lon":122.244577569485},{"country_iso":"CHN","city_id":10927,"city":"Enshi","pop_total":114799.38463721,"mass_total":34870165.5459637,"log_pop":5.05994,"log_mass":7.542454,"log_pop_c":-0.085939,"log_mass_c":-0.048841,"lat":30.2966097740113,"lon":109.474976385022},{"country_iso":"CHN","city_id":10935,"city":"Hengshui","pop_total":263318.934972577,"mass_total":72242583.2958245,"log_pop":5.420482,"log_mass":7.858793,"log_pop_c":0.274604,"log_mass_c":0.267498,"lat":37.7315892867462,"lon":115.689897979899},{"country_iso":"CHN","city_id":10936,"city":"Ci","pop_total":83663.0770334534,"mass_total":26281929.5104672,"log_pop":4.922534,"log_mass":7.419657,"log_pop_c":-0.223345,"log_mass_c":-0.171638,"lat":36.3555797409306,"lon":114.375549989915},{"country_iso":"CHN","city_id":10937,"city":"Jinghai","pop_total":130357.55336876,"mass_total":34234641.6940048,"log_pop":5.115136,"log_mass":7.534466,"log_pop_c":-0.030742,"log_mass_c":-0.05683,"lat":38.9341193638818,"lon":116.907189419533},{"country_iso":"CHN","city_id":10941,"city":"Gongyi","pop_total":173787.991704328,"mass_total":45744910.7715121,"log_pop":5.24002,"log_mass":7.660343,"log_pop_c":0.094141,"log_mass_c":0.069047,"lat":34.745913331028,"lon":112.985797403927},{"country_iso":"CHN","city_id":10942,"city":"Lingyuan","pop_total":126648.411408957,"mass_total":24960135.1445032,"log_pop":5.1026,"log_mass":7.397247,"log_pop_c":-0.043279,"log_mass_c":-0.194048,"lat":41.236966142453,"lon":119.394058227005},{"country_iso":"CHN","city_id":10948,"city":"Jizhou","pop_total":52485.4975273296,"mass_total":19126447.5050524,"log_pop":4.720039,"log_mass":7.281634,"log_pop_c":-0.425839,"log_mass_c":-0.309661,"lat":37.53962034145,"lon":115.567578080292},{"country_iso":"CHN","city_id":10953,"city":"Wuzhi","pop_total":66071.3096964862,"mass_total":29366822.8381863,"log_pop":4.820013,"log_mass":7.467857,"log_pop_c":-0.325865,"log_mass_c":-0.123438,"lat":35.1175885347095,"lon":113.436441700118},{"country_iso":"CHN","city_id":10960,"city":"Huixian","pop_total":135325.927814646,"mass_total":48056037.529672,"log_pop":5.131381,"log_mass":7.681748,"log_pop_c":-0.014497,"log_mass_c":0.090453,"lat":35.4405607929291,"lon":113.802687894824},{"country_iso":"CHN","city_id":10961,"city":"Linzhang","pop_total":63352.1298744089,"mass_total":19083966.8383445,"log_pop":4.801761,"log_mass":7.280669,"log_pop_c":-0.344117,"log_mass_c":-0.310627,"lat":36.3425195924909,"lon":114.586374837379},{"country_iso":"CHN","city_id":10962,"city":"Shancheng","pop_total":126668.085487805,"mass_total":24517521.0788766,"log_pop":5.102667,"log_mass":7.389477,"log_pop_c":-0.043211,"log_mass_c":-0.201819,"lat":35.8894289082726,"lon":114.172947443963},{"country_iso":"CHN","city_id":10974,"city":"Xingyang","pop_total":282821.091450501,"mass_total":79458287.418725,"log_pop":5.451512,"log_mass":7.900139,"log_pop_c":0.305633,"log_mass_c":0.308844,"lat":34.7943375864684,"lon":113.345245094779},{"country_iso":"CHN","city_id":10975,"city":"Fengrun","pop_total":223693.138546956,"mass_total":61379831.5419819,"log_pop":5.349653,"log_mass":7.788026,"log_pop_c":0.203774,"log_mass_c":0.19673,"lat":39.831155867535,"lon":118.154037706564},{"country_iso":"CHN","city_id":10976,"city":"Dengfeng","pop_total":63758.6224992537,"mass_total":22661746.4169703,"log_pop":4.804539,"log_mass":7.355293,"log_pop_c":-0.341339,"log_mass_c":-0.236002,"lat":34.4643608888629,"lon":113.016375933176},{"country_iso":"CHN","city_id":10977,"city":"Qing","pop_total":53438.8961428184,"mass_total":22746099.6102591,"log_pop":4.727857,"log_mass":7.356907,"log_pop_c":-0.418021,"log_mass_c":-0.234388,"lat":38.581933051376,"lon":116.837151197766},{"country_iso":"CHN","city_id":10980,"city":"Danjiangkou","pop_total":81600.1895906471,"mass_total":21517685.7553587,"log_pop":4.911691,"log_mass":7.332796,"log_pop_c":-0.234187,"log_mass_c":-0.2585,"lat":32.5519516651707,"lon":111.503924800089},{"country_iso":"CHN","city_id":10984,"city":"Zhaodong","pop_total":202976.383481473,"mass_total":50455467.8356775,"log_pop":5.307446,"log_mass":7.702908,"log_pop_c":0.161567,"log_mass_c":0.111613,"lat":46.0644537897915,"lon":125.976793218109},{"country_iso":"CHN","city_id":10985,"city":"Tangyin","pop_total":73499.1993579636,"mass_total":26765644.267694,"log_pop":4.866283,"log_mass":7.427578,"log_pop_c":-0.279596,"log_mass_c":-0.163718,"lat":35.9216466279088,"lon":114.361245185001},{"country_iso":"CHN","city_id":10986,"city":"Fengquan","pop_total":80765.3181285,"mass_total":22324870.6040216,"log_pop":4.907225,"log_mass":7.348789,"log_pop_c":-0.238653,"log_mass_c":-0.242506,"lat":35.3899792498245,"lon":113.896695643475},{"country_iso":"CHN","city_id":10987,"city":"Ruzhou","pop_total":143467.565150644,"mass_total":27051170.5087581,"log_pop":5.156754,"log_mass":7.432186,"log_pop_c":0.010875,"log_mass_c":-0.159109,"lat":34.1654312611684,"lon":112.843135457472},{"country_iso":"CHN","city_id":10990,"city":"Xinxiang","pop_total":675234.833987861,"mass_total":145021172.9372,"log_pop":5.829455,"log_mass":8.161431,"log_pop_c":0.683576,"log_mass_c":0.570136,"lat":35.3039080465394,"lon":113.886660359721},{"country_iso":"CHN","city_id":10991,"city":"Tangshan","pop_total":1188836.21619635,"mass_total":350890859.639832,"log_pop":6.075122,"log_mass":8.545172,"log_pop_c":0.929244,"log_mass_c":0.953877,"lat":39.638853634842,"lon":118.204204655885},{"country_iso":"CHN","city_id":10992,"city":"Hebi","pop_total":155228.20970872,"mass_total":39849008.237866,"log_pop":5.190971,"log_mass":7.600418,"log_pop_c":0.045092,"log_mass_c":0.009122,"lat":35.7454565828656,"lon":114.273504435136},{"country_iso":"CHN","city_id":10993,"city":"津南区","pop_total":179143.841823753,"mass_total":59313243.8179635,"log_pop":5.253202,"log_mass":7.773152,"log_pop_c":0.107323,"log_mass_c":0.181856,"lat":38.9905212742772,"lon":117.411913138942},{"country_iso":"CHN","city_id":10996,"city":"Songyuan","pop_total":303429.038096317,"mass_total":109153630.351085,"log_pop":5.482057,"log_mass":8.038038,"log_pop_c":0.336179,"log_mass_c":0.446743,"lat":45.1383656580081,"lon":124.826897623931},{"country_iso":"CHN","city_id":11002,"city":"宁河区","pop_total":64512.0329368714,"mass_total":31027638.7861144,"log_pop":4.809641,"log_mass":7.491749,"log_pop_c":-0.336238,"log_mass_c":-0.099547,"lat":39.3248462080736,"lon":117.809832886179},{"country_iso":"CHN","city_id":11003,"city":"Longshan","pop_total":61183.0554125197,"mass_total":15367750.9334019,"log_pop":4.786631,"log_mass":7.18661,"log_pop_c":-0.359247,"log_mass_c":-0.404685,"lat":29.4615757893617,"lon":109.431931826729},{"country_iso":"CHN","city_id":11004,"city":"Suihua","pop_total":175363.912940346,"mass_total":73011850.6523561,"log_pop":5.24394,"log_mass":7.863393,"log_pop_c":0.098062,"log_mass_c":0.272098,"lat":46.6411077807563,"lon":126.989844199008},{"country_iso":"CHN","city_id":11006,"city":"Botou","pop_total":114459.328563082,"mass_total":33018985.430279,"log_pop":5.058651,"log_mass":7.518764,"log_pop_c":-0.087227,"log_mass_c":-0.072532,"lat":38.0638136383352,"lon":116.577753711268},{"country_iso":"CHN","city_id":11007,"city":"Cangzhou","pop_total":370943.040399147,"mass_total":121512039.918407,"log_pop":5.569307,"log_mass":8.084619,"log_pop_c":0.423429,"log_mass_c":0.493324,"lat":38.3005198584804,"lon":116.849286410816},{"country_iso":"CHN","city_id":11008,"city":"Wei","pop_total":97711.105952332,"mass_total":18310365.8095744,"log_pop":4.989944,"log_mass":7.262697,"log_pop_c":-0.155934,"log_mass_c":-0.328598,"lat":36.3558457140513,"lon":114.923407473426},{"country_iso":"CHN","city_id":11009,"city":"Zhengzhou","pop_total":3535995.05829353,"mass_total":663197675.459687,"log_pop":6.548512,"log_mass":8.821643,"log_pop_c":1.402633,"log_mass_c":1.230348,"lat":34.7622790880828,"lon":113.659667123225},{"country_iso":"CHN","city_id":11010,"city":"北塘","pop_total":159546.488531804,"mass_total":21407672.8098579,"log_pop":5.202887,"log_mass":7.330569,"log_pop_c":0.057009,"log_mass_c":-0.260726,"lat":39.1333989357669,"lon":117.706331605059},{"country_iso":"CHN","city_id":11011,"city":"Binhai","pop_total":749548.121703794,"mass_total":258026099.303966,"log_pop":5.8748,"log_mass":8.411664,"log_pop_c":0.728921,"log_mass_c":0.820368,"lat":39.0116512686292,"lon":117.659283122384},{"country_iso":"CHN","city_id":11014,"city":"Weihui","pop_total":56541.969915868,"mass_total":18779562.9848449,"log_pop":4.752371,"log_mass":7.273685,"log_pop_c":-0.393507,"log_mass_c":-0.31761,"lat":35.4032674984977,"lon":114.073831441772},{"country_iso":"CHN","city_id":11015,"city":"Xinmi","pop_total":182355.074096372,"mass_total":37176344.1234455,"log_pop":5.260918,"log_mass":7.570267,"log_pop_c":0.115039,"log_mass_c":-0.021029,"lat":34.5229676140921,"lon":113.362652625583},{"country_iso":"CHN","city_id":11017,"city":"Duyun","pop_total":105363.609391698,"mass_total":23517435.1806953,"log_pop":5.022691,"log_mass":7.37139,"log_pop_c":-0.123188,"log_mass_c":-0.219905,"lat":26.266348259913,"lon":107.510565343807},{"country_iso":"CHN","city_id":11018,"city":"营城镇","pop_total":135949.038713655,"mass_total":29194793.9077051,"log_pop":5.133376,"log_mass":7.465305,"log_pop_c":-0.012502,"log_mass_c":-0.12599,"lat":39.2434240458502,"lon":117.800671347371},{"country_iso":"CHN","city_id":11021,"city":"Chaoyang","pop_total":333621.332607693,"mass_total":78973498.479432,"log_pop":5.523254,"log_mass":7.897481,"log_pop_c":0.377375,"log_mass_c":0.306186,"lat":41.5748764590654,"lon":120.428397988237},{"country_iso":"CHN","city_id":11022,"city":"中塘镇","pop_total":219741.195086313,"mass_total":69082801.0833621,"log_pop":5.341911,"log_mass":7.83937,"log_pop_c":0.196033,"log_mass_c":0.248075,"lat":38.8314459692006,"lon":117.47299997715},{"country_iso":"CHN","city_id":11023,"city":"Qinghe","pop_total":81194.8730792812,"mass_total":30732666.223872,"log_pop":4.909529,"log_mass":7.4876,"log_pop_c":-0.23635,"log_mass_c":-0.103695,"lat":37.0633905492508,"lon":115.664571581126},{"country_iso":"CHN","city_id":11026,"city":"Gucheng","pop_total":55470.2507667621,"mass_total":21332332.5433303,"log_pop":4.74406,"log_mass":7.329038,"log_pop_c":-0.401818,"log_mass_c":-0.262257,"lat":37.3568339489804,"lon":115.960110817202},{"country_iso":"CHN","city_id":11027,"city":"Beipiao","pop_total":77064.0312327362,"mass_total":26887571.5684016,"log_pop":4.886852,"log_mass":7.429552,"log_pop_c":-0.259027,"log_mass_c":-0.161744,"lat":41.8124867778617,"lon":120.741120158648},{"country_iso":"CHN","city_id":11028,"city":"Wangnianzhuang","pop_total":50751.8721238225,"mass_total":8232522.11780791,"log_pop":4.705452,"log_mass":6.915533,"log_pop_c":-0.440426,"log_mass_c":-0.675763,"lat":39.7663790195379,"lon":118.410762555026},{"country_iso":"CHN","city_id":11029,"city":"Gucheng","pop_total":65144.1984150989,"mass_total":25864409.0477231,"log_pop":4.813876,"log_mass":7.412703,"log_pop_c":-0.332003,"log_mass_c":-0.178593,"lat":32.2763867365437,"lon":111.626291858239},{"country_iso":"CHN","city_id":11030,"city":"Qian'an","pop_total":118193.175484838,"mass_total":40954318.5214054,"log_pop":5.072592,"log_mass":7.6123,"log_pop_c":-0.073286,"log_mass_c":0.021004,"lat":39.9987194624414,"lon":118.70710074418},{"country_iso":"CHN","city_id":11031,"city":"Laohekou","pop_total":91390.9971305183,"mass_total":22478610.9567925,"log_pop":4.960903,"log_mass":7.351769,"log_pop_c":-0.184975,"log_mass_c":-0.239526,"lat":32.388471754463,"lon":111.677850830967},{"country_iso":"CHN","city_id":11034,"city":"庆安县","pop_total":54866.1863443683,"mass_total":20199698.3489432,"log_pop":4.739305,"log_mass":7.305345,"log_pop_c":-0.406574,"log_mass_c":-0.285951,"lat":46.873828374945,"lon":127.499787198594},{"country_iso":"CHN","city_id":11035,"city":"Zhenping","pop_total":113195.851384124,"mass_total":27650105.0559897,"log_pop":5.053831,"log_mass":7.441697,"log_pop_c":-0.092048,"log_mass_c":-0.149599,"lat":33.0404464999012,"lon":112.223339624334},{"country_iso":"CHN","city_id":11046,"city":null,"pop_total":61448.7777182298,"mass_total":3815475.03597805,"log_pop":4.788513,"log_mass":6.581549,"log_pop_c":-0.357365,"log_mass_c":-1.009747,"lat":null,"lon":null},{"country_iso":"CHN","city_id":11047,"city":"Xunxian","pop_total":56129.9052516653,"mass_total":22230717.616511,"log_pop":4.749194,"log_mass":7.346953,"log_pop_c":-0.396684,"log_mass_c":-0.244342,"lat":35.6622127488256,"lon":114.533938290191},{"country_iso":"CHN","city_id":11048,"city":"Lushan","pop_total":63571.453657255,"mass_total":20866945.4086452,"log_pop":4.803262,"log_mass":7.319459,"log_pop_c":-0.342616,"log_mass_c":-0.271837,"lat":33.7450619470465,"lon":112.90554585344},{"country_iso":"CHN","city_id":11049,"city":"Dengzhou","pop_total":154081.154023863,"mass_total":40324570.6459467,"log_pop":5.18775,"log_mass":7.60557,"log_pop_c":0.041871,"log_mass_c":0.014274,"lat":32.6777887136535,"lon":112.088710571607},{"country_iso":"CHN","city_id":11050,"city":"大港区","pop_total":128360.223573393,"mass_total":30714416.6402005,"log_pop":5.10843,"log_mass":7.487342,"log_pop_c":-0.037448,"log_mass_c":-0.103953,"lat":38.7339685701319,"lon":117.516713580765},{"country_iso":"CHN","city_id":11051,"city":"Dezhou","pop_total":402750.931488348,"mass_total":144597562.778336,"log_pop":5.605037,"log_mass":8.160161,"log_pop_c":0.459158,"log_mass_c":0.568866,"lat":37.4514932972356,"lon":116.317874574218},{"country_iso":"CHN","city_id":11054,"city":"Linqing","pop_total":191737.748620255,"mass_total":38243087.0778994,"log_pop":5.282708,"log_mass":7.582553,"log_pop_c":0.136829,"log_mass_c":-0.008742,"lat":36.849955039474,"lon":115.707587376366},{"country_iso":"CHN","city_id":11055,"city":"Huaxian","pop_total":118691.169036898,"mass_total":34877809.9747849,"log_pop":5.074418,"log_mass":7.542549,"log_pop_c":-0.07146,"log_mass_c":-0.048746,"lat":35.5662386973822,"lon":114.525888244848},{"country_iso":"CHN","city_id":11056,"city":"Kaili","pop_total":126495.816272918,"mass_total":41286161.4481219,"log_pop":5.102076,"log_mass":7.615805,"log_pop_c":-0.043802,"log_mass_c":0.024509,"lat":26.5744861136226,"lon":107.956520004439},{"country_iso":"CHN","city_id":11063,"city":"Neihuang","pop_total":58383.4762608823,"mass_total":20091731.9433176,"log_pop":4.76629,"log_mass":7.303017,"log_pop_c":-0.379588,"log_mass_c":-0.288278,"lat":35.9596064345182,"lon":114.90483492303},{"country_iso":"CHN","city_id":11066,"city":"Yanjin","pop_total":50000.1516054733,"mass_total":15064495.8641556,"log_pop":4.698971,"log_mass":7.177955,"log_pop_c":-0.446907,"log_mass_c":-0.413341,"lat":35.1517543528552,"lon":114.191453776527},{"country_iso":"CHN","city_id":11068,"city":"Nanyang","pop_total":586054.276918783,"mass_total":164267850.281066,"log_pop":5.767938,"log_mass":8.215553,"log_pop_c":0.622059,"log_mass_c":0.624257,"lat":32.9950088615748,"lon":112.536608906546},{"country_iso":"CHN","city_id":11069,"city":"Jia","pop_total":66656.3908756592,"mass_total":20010588.8623936,"log_pop":4.823842,"log_mass":7.30126,"log_pop_c":-0.322037,"log_mass_c":-0.290036,"lat":33.9858830228009,"lon":113.226657181776},{"country_iso":"CHN","city_id":11071,"city":"Guanxian","pop_total":53681.5647390431,"mass_total":26267960.7422266,"log_pop":4.729825,"log_mass":7.419426,"log_pop_c":-0.416053,"log_mass_c":-0.171869,"lat":36.4832357016894,"lon":115.460088281665},{"country_iso":"CHN","city_id":11072,"city":"Yuzhou","pop_total":170912.809071649,"mass_total":59106489.111794,"log_pop":5.232775,"log_mass":7.771635,"log_pop_c":0.086896,"log_mass_c":0.18034,"lat":34.1773215184644,"lon":113.489406468477},{"country_iso":"CHN","city_id":11073,"city":"Baise","pop_total":59103.3756172935,"mass_total":24748680.5348562,"log_pop":4.771612,"log_mass":7.393552,"log_pop_c":-0.374266,"log_mass_c":-0.197743,"lat":23.8860851428902,"lon":106.629765494942},{"country_iso":"CHN","city_id":11079,"city":"夏津县","pop_total":67274.0605588848,"mass_total":27670589.1659195,"log_pop":4.827848,"log_mass":7.442018,"log_pop_c":-0.318031,"log_mass_c":-0.149277,"lat":36.9755208152962,"lon":115.993728661667},{"country_iso":"CHN","city_id":11083,"city":"Xiaoxiang","pop_total":76060.8215573778,"mass_total":29015268.6744023,"log_pop":4.881161,"log_mass":7.462627,"log_pop_c":-0.264717,"log_mass_c":-0.128669,"lat":45.9802129785971,"lon":126.601618444337},{"country_iso":"CHN","city_id":11084,"city":"Xinzheng","pop_total":171168.10597183,"mass_total":46877640.028723,"log_pop":5.233423,"log_mass":7.670966,"log_pop_c":0.087544,"log_mass_c":0.07967,"lat":34.3925757299428,"lon":113.745038382051},{"country_iso":"CHN","city_id":11085,"city":"Zhongmu","pop_total":104805.646555117,"mass_total":34807878.6171325,"log_pop":5.020385,"log_mass":7.541678,"log_pop_c":-0.125494,"log_mass_c":-0.049618,"lat":34.7229900303185,"lon":114.013712809228},{"country_iso":"CHN","city_id":11086,"city":"Hulan","pop_total":83688.846428838,"mass_total":43470738.2512118,"log_pop":4.922668,"log_mass":7.638197,"log_pop_c":-0.223211,"log_mass_c":0.046902,"lat":45.8894787157914,"lon":126.552313777787},{"country_iso":"CHN","city_id":11088,"city":"Pingdingshan","pop_total":616368.315573713,"mass_total":132422663.930793,"log_pop":5.78984,"log_mass":8.121962,"log_pop_c":0.643962,"log_mass_c":0.530667,"lat":33.7363624751993,"lon":113.301495374233},{"country_iso":"CHN","city_id":11089,"city":"Luannan","pop_total":60371.5226281264,"mass_total":28925680.0080109,"log_pop":4.780832,"log_mass":7.461284,"log_pop_c":-0.365046,"log_mass_c":-0.130012,"lat":39.5041520310446,"lon":118.678797165654},{"country_iso":"CHN","city_id":11090,"city":"Puyang","pop_total":378002.073457327,"mass_total":114919185.975119,"log_pop":5.577494,"log_mass":8.060393,"log_pop_c":0.431616,"log_mass_c":0.469097,"lat":35.7524664756441,"lon":115.02707728749},{"country_iso":"CHN","city_id":11094,"city":"Ningjin","pop_total":55579.2850872779,"mass_total":23205378.5214328,"log_pop":4.744913,"log_mass":7.365589,"log_pop_c":-0.400965,"log_mass_c":-0.225707,"lat":37.6390564808009,"lon":116.803027399045},{"country_iso":"CHN","city_id":11100,"city":"陵城区","pop_total":93159.7131049372,"mass_total":25055811.9557942,"log_pop":4.969228,"log_mass":7.398908,"log_pop_c":-0.17665,"log_mass_c":-0.192387,"lat":37.3390088958594,"lon":116.55778909098},{"country_iso":"CHN","city_id":11101,"city":"Fengqiu","pop_total":76320.4197476107,"mass_total":18597489.0806879,"log_pop":4.882641,"log_mass":7.269454,"log_pop_c":-0.263238,"log_mass_c":-0.321841,"lat":35.0439527284526,"lon":114.414923767836},{"country_iso":"CHN","city_id":11103,"city":"Changge","pop_total":119190.055452089,"mass_total":49346252.6651565,"log_pop":5.07624,"log_mass":7.693254,"log_pop_c":-0.069638,"log_mass_c":0.101959,"lat":34.2079720013836,"lon":113.757610758257},{"country_iso":"CHN","city_id":11104,"city":"Xinye","pop_total":52627.4958961777,"mass_total":20032593.1580041,"log_pop":4.721213,"log_mass":7.301737,"log_pop_c":-0.424666,"log_mass_c":-0.289558,"lat":32.5242529484978,"lon":112.365427507812},{"country_iso":"CHN","city_id":11105,"city":"Shuangliao","pop_total":58653.6788376303,"mass_total":19870244.5382694,"log_pop":4.768295,"log_mass":7.298203,"log_pop_c":-0.377583,"log_mass_c":-0.293092,"lat":43.5110597848079,"lon":123.48954543993},{"country_iso":"CHN","city_id":11106,"city":"Fuxin","pop_total":457526.190076259,"mass_total":161510325.087659,"log_pop":5.660416,"log_mass":8.2082,"log_pop_c":0.514538,"log_mass_c":0.616905,"lat":41.9994156018605,"lon":121.660205458782},{"country_iso":"CHN","city_id":11107,"city":"Fangcheng","pop_total":52870.4978222698,"mass_total":18468853.2312676,"log_pop":4.723213,"log_mass":7.26644,"log_pop_c":-0.422665,"log_mass_c":-0.324855,"lat":33.2453992113584,"lon":112.981433603761},{"country_iso":"CHN","city_id":11110,"city":"Pingyuan","pop_total":53096.2653380443,"mass_total":25969373.4908526,"log_pop":4.725064,"log_mass":7.414461,"log_pop_c":-0.420814,"log_mass_c":-0.176834,"lat":37.1639529066454,"lon":116.440026496878},{"country_iso":"CHN","city_id":11111,"city":"Kaifeng","pop_total":563273.284475704,"mass_total":150726955.738422,"log_pop":5.750719,"log_mass":8.178191,"log_pop_c":0.604841,"log_mass_c":0.586896,"lat":34.7914163344423,"lon":114.337429934899},{"country_iso":"CHN","city_id":11112,"city":"Harbin","pop_total":3120177.42534289,"mass_total":718818616.325225,"log_pop":6.494179,"log_mass":8.856619,"log_pop_c":1.348301,"log_mass_c":1.265324,"lat":45.7179821142143,"lon":126.644126121377},{"country_iso":"CHN","city_id":11113,"city":"Fancheng","pop_total":677823.409638313,"mass_total":184610774.436204,"log_pop":5.831117,"log_mass":8.266257,"log_pop_c":0.685238,"log_mass_c":0.674962,"lat":32.071699667575,"lon":112.135040039089},{"country_iso":"CHN","city_id":11114,"city":"Nanzhang","pop_total":51132.8189731486,"mass_total":16119757.4228394,"log_pop":4.7087,"log_mass":7.207359,"log_pop_c":-0.437179,"log_mass_c":-0.383937,"lat":31.7708565733192,"lon":111.839386431598},{"country_iso":"CHN","city_id":11116,"city":"Changyuan","pop_total":111175.470924271,"mass_total":37163859.95412,"log_pop":5.046009,"log_mass":7.570121,"log_pop_c":-0.099869,"log_mass_c":-0.021175,"lat":35.1930539335491,"lon":114.666978273829},{"country_iso":"CHN","city_id":11120,"city":"高唐县","pop_total":76686.7675219239,"mass_total":38946969.8704946,"log_pop":4.88472,"log_mass":7.590474,"log_pop_c":-0.261158,"log_mass_c":-0.000822,"lat":36.8621141117293,"lon":116.233070041968},{"country_iso":"CHN","city_id":11121,"city":"Shenxian","pop_total":79911.6510558689,"mass_total":20886578.54425,"log_pop":4.90261,"log_mass":7.319867,"log_pop_c":-0.243268,"log_mass_c":-0.271428,"lat":36.2453720525932,"lon":115.662126949276},{"country_iso":"CHN","city_id":11124,"city":"Sheqi","pop_total":50271.9691135004,"mass_total":15558221.1536989,"log_pop":4.701326,"log_mass":7.19196,"log_pop_c":-0.444552,"log_mass_c":-0.399335,"lat":33.0575379437223,"lon":112.930264009022},{"country_iso":"CHN","city_id":11128,"city":"Changli","pop_total":94476.7313193242,"mass_total":28808697.0113307,"log_pop":4.975325,"log_mass":7.459524,"log_pop_c":-0.170554,"log_mass_c":-0.131772,"lat":39.7000326039372,"lon":119.168670996919},{"country_iso":"CHN","city_id":11130,"city":"Tongren","pop_total":91601.8517713991,"mass_total":20191295.7983456,"log_pop":4.961904,"log_mass":7.305164,"log_pop_c":-0.183974,"log_mass_c":-0.286131,"lat":27.7260214195219,"lon":109.178049920331},{"country_iso":"CHN","city_id":11131,"city":"Xuchang","pop_total":508242.929790784,"mass_total":119818280.574434,"log_pop":5.706071,"log_mass":8.078523,"log_pop_c":0.560193,"log_mass_c":0.487228,"lat":34.0359937592878,"lon":113.821036979668},{"country_iso":"CHN","city_id":11132,"city":"Liaocheng","pop_total":378482.21017551,"mass_total":103238627.358545,"log_pop":5.578045,"log_mass":8.013842,"log_pop_c":0.432167,"log_mass_c":0.422547,"lat":36.4693857346466,"lon":115.974341879898},{"country_iso":"CHN","city_id":11135,"city":"Laoting","pop_total":68385.1154702771,"mass_total":19706228.556489,"log_pop":4.834962,"log_mass":7.294604,"log_pop_c":-0.310917,"log_mass_c":-0.296692,"lat":39.4134630757486,"lon":118.900315568242},{"country_iso":"CHN","city_id":11137,"city":"Laoling","pop_total":89738.5149786828,"mass_total":26890128.4241752,"log_pop":4.952979,"log_mass":7.429593,"log_pop_c":-0.1929,"log_mass_c":-0.161703,"lat":37.7396743769152,"lon":117.206914757264},{"country_iso":"CHN","city_id":11140,"city":"Yichang","pop_total":571482.211784642,"mass_total":128122610.872034,"log_pop":5.757003,"log_mass":8.107626,"log_pop_c":0.611124,"log_mass_c":0.51633,"lat":30.7094672746156,"lon":111.319962202622},{"country_iso":"CHN","city_id":11141,"city":"Weishi","pop_total":61871.7941548151,"mass_total":26783720.7623189,"log_pop":4.791493,"log_mass":7.427871,"log_pop_c":-0.354386,"log_mass_c":-0.163425,"lat":34.4129517490157,"lon":114.186966685798},{"country_iso":"CHN","city_id":11142,"city":"Shuangcheng","pop_total":109155.528373797,"mass_total":29679567.5211334,"log_pop":5.038046,"log_mass":7.472458,"log_pop_c":-0.107833,"log_mass_c":-0.118838,"lat":45.3651795867736,"lon":126.292395938633},{"country_iso":"CHN","city_id":11144,"city":"Qinhuangdao","pop_total":633803.108877515,"mass_total":161946035.421421,"log_pop":5.801954,"log_mass":8.20937,"log_pop_c":0.656076,"log_mass_c":0.618075,"lat":39.942208615788,"lon":119.596101875613},{"country_iso":"CHN","city_id":11147,"city":"Tanghe","pop_total":128411.698535673,"mass_total":33269948.3477509,"log_pop":5.108605,"log_mass":7.522052,"log_pop_c":-0.037274,"log_mass_c":-0.069243,"lat":32.6816417033782,"lon":112.852279131705},{"country_iso":"CHN","city_id":11148,"city":"Yanggu","pop_total":98122.2646785081,"mass_total":29104281.3372167,"log_pop":4.991768,"log_mass":7.463957,"log_pop_c":-0.154111,"log_mass_c":-0.127339,"lat":36.1111279857078,"lon":115.780879048857},{"country_iso":"CHN","city_id":11150,"city":"Jishou","pop_total":99999.6262297827,"mass_total":26574948.6684119,"log_pop":4.999998,"log_mass":7.424472,"log_pop_c":-0.14588,"log_mass_c":-0.166823,"lat":28.295536121502,"lon":109.722355506527},{"country_iso":"CHN","city_id":11151,"city":"Chiping","pop_total":110716.517896773,"mass_total":45649560.7200423,"log_pop":5.044212,"log_mass":7.659437,"log_pop_c":-0.101666,"log_mass_c":0.068141,"lat":36.594116598313,"lon":116.249087050378},{"country_iso":"CHN","city_id":11153,"city":"Shanhaiguan","pop_total":112134.713752708,"mass_total":28606950.4546336,"log_pop":5.04974,"log_mass":7.456472,"log_pop_c":-0.096138,"log_mass_c":-0.134824,"lat":40.0028934082279,"lon":119.750197022916},{"country_iso":"CHN","city_id":11155,"city":"Yucheng","pop_total":67591.2138049887,"mass_total":34674112.3461279,"log_pop":4.82989,"log_mass":7.540005,"log_pop_c":-0.315988,"log_mass_c":-0.05129,"lat":36.9286411632821,"lon":116.646921468467},{"country_iso":"CHN","city_id":11158,"city":"Nong'an","pop_total":57621.313416219,"mass_total":24208187.7286965,"log_pop":4.760583,"log_mass":7.383962,"log_pop_c":-0.385295,"log_mass_c":-0.207333,"lat":44.4361594976,"lon":125.167355633523},{"country_iso":"CHN","city_id":11159,"city":"Linyi","pop_total":55484.676967611,"mass_total":13026396.4490392,"log_pop":4.744173,"log_mass":7.114824,"log_pop_c":-0.401705,"log_mass_c":-0.476471,"lat":37.1972756573196,"lon":116.887100616784},{"country_iso":"CHN","city_id":11161,"city":"Jinzhou","pop_total":562956.002106198,"mass_total":147718806.336049,"log_pop":5.750474,"log_mass":8.169436,"log_pop_c":0.604596,"log_mass_c":0.57814,"lat":41.1135205792173,"lon":121.134112927719},{"country_iso":"CHN","city_id":11162,"city":"Linying","pop_total":130790.789615214,"mass_total":37522963.487683,"log_pop":5.116577,"log_mass":7.574297,"log_pop_c":-0.029301,"log_mass_c":-0.016998,"lat":33.8117471429832,"lon":113.935021937637},{"country_iso":"CHN","city_id":11163,"city":"Wuyang","pop_total":66965.1841115409,"mass_total":18252842.0678845,"log_pop":4.825849,"log_mass":7.26133,"log_pop_c":-0.320029,"log_mass_c":-0.329965,"lat":33.4397578316976,"lon":113.604547939557},{"country_iso":"CHN","city_id":11164,"city":"Yicheng","pop_total":68234.6036195138,"mass_total":21228683.9000752,"log_pop":4.834005,"log_mass":7.326923,"log_pop_c":-0.311874,"log_mass_c":-0.264372,"lat":31.7039337126316,"lon":112.250188171514},{"country_iso":"CHN","city_id":11175,"city":"Lankao","pop_total":62951.3498117054,"mass_total":23506704.01128,"log_pop":4.799005,"log_mass":7.371192,"log_pop_c":-0.346873,"log_mass_c":-0.220104,"lat":34.8326759926208,"lon":114.816247092277},{"country_iso":"CHN","city_id":11176,"city":"Zhangjiajie","pop_total":114732.97706267,"mass_total":23990889.3955693,"log_pop":5.059688,"log_mass":7.380046,"log_pop_c":-0.08619,"log_mass_c":-0.211249,"lat":29.1226310183971,"lon":110.481877930405},{"country_iso":"CHN","city_id":11179,"city":"Huludao","pop_total":316645.334093314,"mass_total":109684020.333008,"log_pop":5.500573,"log_mass":8.040143,"log_pop_c":0.354695,"log_mass_c":0.448848,"lat":40.7518625766975,"lon":120.850061906044},{"country_iso":"CHN","city_id":11185,"city":"Dong'e","pop_total":56490.952287557,"mass_total":21659899.3417337,"log_pop":4.751979,"log_mass":7.335656,"log_pop_c":-0.393899,"log_mass_c":-0.255639,"lat":36.3447799395087,"lon":116.244277586075},