[{"country_iso": "FRA", "city_id": 1691, "city": "Brest", "pop_total": 110502.949253753, "mass_total": 47418705.53494, "log_pop": 5.043374, "log_mass": 7.67595, "log_pop_c": -0.089741, "log_mass_c": -0.071378, "lat": 48.3970308629459, "lon": -4.47681296162248}, {"country_iso": "FRA", "city_id": 1732, "city": "Lorient", "pop_total": 74871.6923847363, "mass_total": 36583352.2512563, "log_pop": 4.874318, "log_mass": 7.563283, "log_pop_c": -0.258798, "log_mass_c": -0.184044, "lat": 47.7367460887663, "lon": -3.36067498499788}, {"country_iso": "FRA", "city_id": 1818, "city": "Rennes", "pop_total": 185355.879330596, "mass_total": 62465620.0090345, "log_pop": 5.268006, "log_mass": 7.795641, "log_pop_c": 0.134891, "log_mass_c": 0.048314, "lat": 48.1125594220698, "lon": -1.66343129558009}, {"country_iso": "FRA", "city_id": 1821, "city": "Nantes", "pop_total": 350985.702445456, "mass_total": 132238668.118673, "log_pop": 5.545289, "log_mass": 8.121358, "log_pop_c": 0.412174, "log_mass_c": 0.374031, "lat": 47.2220685183465, "lon": -1.55365557575767}, {"country_iso": "FRA", "city_id": 1823, "city": "Cherbourg", "pop_total": 52422.0102125095, "mass_total": 24816024.5758301, "log_pop": 4.719514, "log_mass": 7.394732, "log_pop_c": -0.413601, "log_mass_c": -0.352595, "lat": 49.6485314994632, "lon": -1.61496213847786}, {"country_iso": "FRA", "city_id": 1824, "city": "Anglet", "pop_total": 65186.4771668144, "mass_total": 27569793.8857708, "log_pop": 4.814158, "log_mass": 7.440434, "log_pop_c": -0.318958, "log_mass_c": -0.306894, "lat": 43.4873020907329, "lon": -1.50870941880776}, {"country_iso": "FRA", "city_id": 1855, "city": "La Rochelle", "pop_total": 70811.6511127421, "mass_total": 37962187.1939133, "log_pop": 4.850105, "log_mass": 7.579351, "log_pop_c": -0.28301, "log_mass_c": -0.167976, "lat": 46.159926994113, "lon": -1.15839695843623}, {"country_iso": "FRA", "city_id": 1897, "city": "Bordeaux", "pop_total": 470818.69566581, "mass_total": 179852959.078354, "log_pop": 5.672854, "log_mass": 8.254918, "log_pop_c": 0.539739, "log_mass_c": 0.50759, "lat": 44.8371536836363, "lon": -0.595453106222826}, {"country_iso": "FRA", "city_id": 1907, "city": "Angers", "pop_total": 142253.372089739, "mass_total": 67257825.4911988, "log_pop": 5.153063, "log_mass": 7.827743, "log_pop_c": 0.019947, "log_mass_c": 0.080415, "lat": 47.4641640727124, "lon": -0.54484366163261}, {"country_iso": "FRA", "city_id": 1927, "city": "Pau", "pop_total": 81924.9500227012, "mass_total": 29422451.110355, "log_pop": 4.913416, "log_mass": 7.468679, "log_pop_c": -0.219699, "log_mass_c": -0.278648, "lat": 43.3057997130749, "lon": -0.36938731191886}, {"country_iso": "FRA", "city_id": 1931, "city": "Caen", "pop_total": 126015.137639543, "mass_total": 56060946.5290815, "log_pop": 5.100423, "log_mass": 7.74866, "log_pop_c": -0.032692, "log_mass_c": 0.001333, "lat": 49.1863456733996, "lon": -0.343790122547685}, {"country_iso": "FRA", "city_id": 1961, "city": "Le Havre", "pop_total": 152714.105793675, "mass_total": 82071894.5173632, "log_pop": 5.183879, "log_mass": 7.914194, "log_pop_c": 0.050764, "log_mass_c": 0.166867, "lat": 49.4896010344911, "lon": 0.162571617319382}, {"country_iso": "FRA", "city_id": 1969, "city": "Le Mans", "pop_total": 117216.990016062, "mass_total": 57020134.0949665, "log_pop": 5.068991, "log_mass": 7.756028, "log_pop_c": -0.064125, "log_mass_c": 0.008701, "lat": 47.9925816051808, "lon": 0.192944024161384}, {"country_iso": "FRA", "city_id": 1976, "city": "Poitiers", "pop_total": 72811.4817108594, "mass_total": 29158369.6172971, "log_pop": 4.8622, "log_mass": 7.464763, "log_pop_c": -0.270915, "log_mass_c": -0.282564, "lat": 46.5798263177773, "lon": 0.344889751719921}, {"country_iso": "FRA", "city_id": 1989, "city": "Tours", "pop_total": 169574.675435447, "mass_total": 69393061.5555592, "log_pop": 5.229361, "log_mass": 7.841316, "log_pop_c": 0.096246, "log_mass_c": 0.093989, "lat": 47.3817634979956, "lon": 0.691532346727961}, {"country_iso": "FRA", "city_id": 1998, "city": "Rouen", "pop_total": 240757.203180085, "mass_total": 101748442.726809, "log_pop": 5.381579, "log_mass": 8.007528, "log_pop_c": 0.248464, "log_mass_c": 0.2602, "lat": 49.425717487074, "lon": 1.07378924756801}, {"country_iso": "FRA", "city_id": 2010, "city": "Limoges", "pop_total": 102443.386776394, "mass_total": 44232238.7895601, "log_pop": 5.010484, "log_mass": 7.645739, "log_pop_c": -0.122631, "log_mass_c": -0.101588, "lat": 45.8390539833204, "lon": 1.26531531514538}, {"country_iso": "FRA", "city_id": 2017, "city": "Toulouse", "pop_total": 517596.382154054, "mass_total": 202914491.914675, "log_pop": 5.713991, "log_mass": 8.307313, "log_pop_c": 0.580876, "log_mass_c": 0.559986, "lat": 43.6092363750337, "lon": 1.42300090072944}, {"country_iso": "FRA", "city_id": 2022, "city": "Chartres", "pop_total": 54049.2409194593, "mass_total": 26993780.7665805, "log_pop": 4.73279, "log_mass": 7.431264, "log_pop_c": -0.400326, "log_mass_c": -0.316064, "lat": 48.4424681889536, "lon": 1.48567943169308}, {"country_iso": "FRA", "city_id": 2027, "city": "Boulogne-sur-Mer", "pop_total": 56715.2968453099, "mass_total": 22114487.4533195, "log_pop": 4.7537, "log_mass": 7.344677, "log_pop_c": -0.379415, "log_mass_c": -0.40265, "lat": 50.7172993094545, "lon": 1.59992123345662}, {"country_iso": "FRA", "city_id": 2035, "city": "Mantes-la-Jolie", "pop_total": 71326.8059197461, "mass_total": 28716620.1726685, "log_pop": 4.853253, "log_mass": 7.458133, "log_pop_c": -0.279862, "log_mass_c": -0.289194, "lat": 48.9829659952957, "lon": 1.74103601174621}, {"country_iso": "FRA", "city_id": 2040, "city": "Calais", "pop_total": 59498.1250237965, "mass_total": 28482329.0511228, "log_pop": 4.774503, "log_mass": 7.454575, "log_pop_c": -0.358612, "log_mass_c": -0.292752, "lat": 50.9532957453726, "lon": 1.87436273991811}, {"country_iso": "FRA", "city_id": 2045, "city": "Orl\u00e9ans", "pop_total": 149317.493085569, "mass_total": 63921792.9448029, "log_pop": 5.174111, "log_mass": 7.805649, "log_pop_c": 0.040996, "log_mass_c": 0.058322, "lat": 47.9054577615286, "lon": 1.9105422439196}, {"country_iso": "FRA", "city_id": 2046, "city": "Paris", "pop_total": 7877395.62474152, "mass_total": 1826689438.70166, "log_pop": 6.896383, "log_mass": 9.261665, "log_pop_c": 1.763268, "log_mass_c": 1.514337, "lat": 48.8400799494543, "lon": 2.32204966239808}, {"country_iso": "FRA", "city_id": 2054, "city": "Dunkirk", "pop_total": 107362.48126182, "mass_total": 71406843.0448203, "log_pop": 5.030853, "log_mass": 7.85374, "log_pop_c": -0.102263, "log_mass_c": 0.106413, "lat": 51.0308009313288, "lon": 2.33967725727505}, {"country_iso": "FRA", "city_id": 2057, "city": "Amiens", "pop_total": 98702.1502320112, "mass_total": 37346894.5654506, "log_pop": 4.994327, "log_mass": 7.572254, "log_pop_c": -0.138789, "log_mass_c": -0.175073, "lat": 49.8975563212072, "lon": 2.30162685469917}, {"country_iso": "FRA", "city_id": 2061, "city": "Creil", "pop_total": 55877.6858828277, "mass_total": 24171958.8145756, "log_pop": 4.747238, "log_mass": 7.383312, "log_pop_c": -0.385877, "log_mass_c": -0.364015, "lat": 49.264819693883, "lon": 2.4716427085247}, {"country_iso": "FRA", "city_id": 2065, "city": "Melun", "pop_total": 65159.5639154947, "mass_total": 21379666.9844285, "log_pop": 4.813978, "log_mass": 7.330001, "log_pop_c": -0.319137, "log_mass_c": -0.417326, "lat": 48.5321346211716, "lon": 2.65148259575884}, {"country_iso": "FRA", "city_id": 2069, "city": "Lens", "pop_total": 152642.568639898, "mass_total": 77599657.3175771, "log_pop": 5.183676, "log_mass": 7.88986, "log_pop_c": 0.050561, "log_mass_c": 0.142532, "lat": 50.4277909584893, "lon": 2.85221745815866}, {"country_iso": "FRA", "city_id": 2080, "city": "Lille", "pop_total": 719238.863675472, "mass_total": 252008710.547899, "log_pop": 5.856873, "log_mass": 8.401416, "log_pop_c": 0.723758, "log_mass_c": 0.654088, "lat": 50.6625612122335, "lon": 3.11098948444915}, {"country_iso": "FRA", "city_id": 2082, "city": "Douai", "pop_total": 55441.4395988665, "mass_total": 28547864.1266563, "log_pop": 4.743834, "log_mass": 7.455574, "log_pop_c": -0.389281, "log_mass_c": -0.291754, "lat": 50.3787958233295, "lon": 3.10949169094087}, {"country_iso": "FRA", "city_id": 2086, "city": "Perpignan", "pop_total": 93877.8420486511, "mass_total": 39438821.1115684, "log_pop": 4.972563, "log_mass": 7.595924, "log_pop_c": -0.160552, "log_mass_c": -0.151403, "lat": 42.6965741779208, "lon": 2.89270879712267}, {"country_iso": "FRA", "city_id": 2094, "city": "Clermont-Ferrand", "pop_total": 152820.178634893, "mass_total": 68302499.6635307, "log_pop": 5.184181, "log_mass": 7.834437, "log_pop_c": 0.051066, "log_mass_c": 0.087109, "lat": 45.7848489885199, "lon": 3.10965918890005}, {"country_iso": "FRA", "city_id": 2104, "city": "Valenciennes", "pop_total": 77881.1816177597, "mass_total": 40089367.6641212, "log_pop": 4.891433, "log_mass": 7.603029, "log_pop_c": -0.241683, "log_mass_c": -0.144298, "lat": 50.356667941387, "lon": 3.50919965859388}, {"country_iso": "FRA", "city_id": 2127, "city": "Reims", "pop_total": 155734.145049828, "mass_total": 58517095.2618876, "log_pop": 5.192384, "log_mass": 7.767283, "log_pop_c": 0.059269, "log_mass_c": 0.019955, "lat": 49.2512672944821, "lon": 4.03251308031178}, {"country_iso": "FRA", "city_id": 2130, "city": "Montpellier", "pop_total": 246752.644592671, "mass_total": 73219542.3832792, "log_pop": 5.392262, "log_mass": 7.864627, "log_pop_c": 0.259147, "log_mass_c": 0.1173, "lat": 43.6203711006988, "lon": 3.87815891983947}, {"country_iso": "FRA", "city_id": 2131, "city": "Troyes", "pop_total": 89465.6195654602, "mass_total": 39630485.0913813, "log_pop": 4.951656, "log_mass": 7.598029, "log_pop_c": -0.181459, "log_mass_c": -0.149298, "lat": 48.295141548385, "lon": 4.06959221288418}, {"country_iso": "FRA", "city_id": 2168, "city": "Saint-\u00c9tienne", "pop_total": 133464.775518245, "mass_total": 50508571.364785, "log_pop": 5.125367, "log_mass": 7.703365, "log_pop_c": -0.007748, "log_mass_c": -0.043962, "lat": 45.4436454995614, "lon": 4.39487647447071}, {"country_iso": "FRA", "city_id": 2172, "city": "Nimes", "pop_total": 97031.6140968441, "mass_total": 37072522.7953538, "log_pop": 4.986913, "log_mass": 7.569052, "log_pop_c": -0.146202, "log_mass_c": -0.178275, "lat": 43.8320658749545, "lon": 4.34934124416321}, {"country_iso": "FRA", "city_id": 2186, "city": "Lyon", "pop_total": 928884.172658314, "mass_total": 269165534.778404, "log_pop": 5.967962, "log_mass": 8.430019, "log_pop_c": 0.834846, "log_mass_c": 0.682692, "lat": 45.7511990830318, "lon": 4.8608487967789}, {"country_iso": "FRA", "city_id": 2195, "city": "Avignon", "pop_total": 73897.6770748975, "mass_total": 31468799.310967, "log_pop": 4.868631, "log_mass": 7.49788, "log_pop_c": -0.264484, "log_mass_c": -0.249447, "lat": 43.9343247996561, "lon": 4.83306053525089}, {"country_iso": "FRA", "city_id": 2197, "city": "Dijon", "pop_total": 167774.902399065, "mass_total": 67235169.7233645, "log_pop": 5.224727, "log_mass": 7.827597, "log_pop_c": 0.091612, "log_mass_c": 0.080269, "lat": 47.3179117858131, "lon": 5.04300450686496}, {"country_iso": "FRA", "city_id": 2198, "city": "Valence", "pop_total": 68673.183589767, "mass_total": 34418463.5750977, "log_pop": 4.836787, "log_mass": 7.536791, "log_pop_c": -0.296328, "log_mass_c": -0.210536, "lat": 44.917574340135, "lon": 4.89536823951577}, {"country_iso": "FRA", "city_id": 2221, "city": "Vitrolles", "pop_total": 59031.0385648246, "mass_total": 34458062.2764356, "log_pop": 4.77108, "log_mass": 7.537291, "log_pop_c": -0.362035, "log_mass_c": -0.210036, "lat": 43.4205078632567, "lon": 5.24185718208593}, {"country_iso": "FRA", "city_id": 2228, "city": "Marseille", "pop_total": 772994.35233197, "mass_total": 208316508.816357, "log_pop": 5.888176, "log_mass": 8.318724, "log_pop_c": 0.755061, "log_mass_c": 0.571396, "lat": 43.3007251239175, "lon": 5.40716372624691}, {"country_iso": "FRA", "city_id": 2234, "city": "Aix-en-Provence", "pop_total": 63016.941100897, "mass_total": 19158692.9177067, "log_pop": 4.799457, "log_mass": 7.282366, "log_pop_c": -0.333658, "log_mass_c": -0.464961, "lat": 43.5363524953203, "lon": 5.43443826245133}, {"country_iso": "FRA", "city_id": 2246, "city": "Grenoble", "pop_total": 269180.181981923, "mass_total": 78672403.8832659, "log_pop": 5.430043, "log_mass": 7.895822, "log_pop_c": 0.296928, "log_mass_c": 0.148495, "lat": 45.1854007208349, "lon": 5.72569702407877}, {"country_iso": "FRA", "city_id": 2256, "city": "Thionville", "pop_total": 58852.6246119761, "mass_total": 39133817.7256932, "log_pop": 4.769766, "log_mass": 7.592552, "log_pop_c": -0.363349, "log_mass_c": -0.154775, "lat": 49.3362716420989, "lon": 6.13957326330238}, {"country_iso": "FRA", "city_id": 2258, "city": "Besan\u00e7on", "pop_total": 76989.6580284521, "mass_total": 29836842.4985805, "log_pop": 4.886432, "log_mass": 7.474753, "log_pop_c": -0.246683, "log_mass_c": -0.272574, "lat": 47.2401966638616, "lon": 6.0055669913163}, {"country_iso": "FRA", "city_id": 2263, "city": "Metz", "pop_total": 116574.1535096, "mass_total": 49759894.7499579, "log_pop": 5.066602, "log_mass": 7.696879, "log_pop_c": -0.066513, "log_mass_c": -0.050448, "lat": 49.1193004846404, "lon": 6.17796138867181}, {"country_iso": "FRA", "city_id": 2264, "city": "Chamb\u00e9ry", "pop_total": 58896.1964132842, "mass_total": 23764458.0429886, "log_pop": 4.770087, "log_mass": 7.375928, "log_pop_c": -0.363028, "log_mass_c": -0.371399, "lat": 45.5803581488433, "lon": 5.91730576240628}, {"country_iso": "FRA", "city_id": 2265, "city": "Toulon", "pop_total": 305304.398699659, "mass_total": 137084956.995404, "log_pop": 5.484733, "log_mass": 8.13699, "log_pop_c": 0.351618, "log_mass_c": 0.389662, "lat": 43.1171755730668, "lon": 5.9107897165937}, {"country_iso": "FRA", "city_id": 2268, "city": "Nancy", "pop_total": 166238.064243992, "mass_total": 56990891.3442598, "log_pop": 5.22073, "log_mass": 7.755805, "log_pop_c": 0.087615, "log_mass_c": 0.008478, "lat": 48.6844469249136, "lon": 6.18697008715156}, {"country_iso": "FRA", "city_id": 2280, "city": "Annecy", "pop_total": 80260.0052932622, "mass_total": 27654767.5921216, "log_pop": 4.904499, "log_mass": 7.44177, "log_pop_c": -0.228616, "log_mass_c": -0.305557, "lat": 45.9057832316571, "lon": 6.11484375307688}, {"country_iso": "FRA", "city_id": 2367, "city": "Mulhouse", "pop_total": 148238.808714277, "mass_total": 60908491.2236145, "log_pop": 5.170962, "log_mass": 7.784678, "log_pop_c": 0.037847, "log_mass_c": 0.037351, "lat": 47.7621221504445, "lon": 7.34123599478245}, {"country_iso": "FRA", "city_id": 2368, "city": "Nice", "pop_total": 584248.006405082, "mass_total": 195925568.784178, "log_pop": 5.766597, "log_mass": 8.292091, "log_pop_c": 0.633482, "log_mass_c": 0.544764, "lat": 43.6460716545686, "lon": 7.14371166678695}, {"country_iso": "FRA", "city_id": 2372, "city": "Colmar", "pop_total": 52678.2496711625, "mass_total": 24593291.7670941, "log_pop": 4.721631, "log_mass": 7.390817, "log_pop_c": -0.411484, "log_mass_c": -0.356511, "lat": 48.0840003837881, "lon": 7.35934510598987}, {"country_iso": "FRA", "city_id": 2394, "city": "Strasbourg", "pop_total": 326960.023682659, "mass_total": 123235217.044863, "log_pop": 5.514495, "log_mass": 8.090735, "log_pop_c": 0.38138, "log_mass_c": 0.343408, "lat": 48.5751826742767, "lon": 7.74207651965005}]