[{"country_iso": "NLD", "city_id": 2123, "city": "Rotterdam [The Hague]", "pop_total": 1306024.67819359, "mass_total": 542370778.051559, "log_pop": 6.115951, "log_mass": 8.734296, "log_pop_c": 1.038624, "log_mass_c": 1.02043, "lat": 51.9568004238678, "lon": 4.34593878152196}, {"country_iso": "NLD", "city_id": 2138, "city": "Leiden", "pop_total": 201804.284458839, "mass_total": 73342234.9585208, "log_pop": 5.30493, "log_mass": 7.865354, "log_pop_c": 0.227603, "log_mass_c": 0.151488, "lat": 52.1851439952694, "lon": 4.48415046690986}, {"country_iso": "NLD", "city_id": 2144, "city": "Zoetermeer", "pop_total": 106947.732231847, "mass_total": 45555104.2773678, "log_pop": 5.029172, "log_mass": 7.658537, "log_pop_c": -0.048156, "log_mass_c": -0.055329, "lat": 52.034501068446, "lon": 4.50414610845534}, {"country_iso": "NLD", "city_id": 2152, "city": "Heemskerk", "pop_total": 78112.0769553895, "mass_total": 46422211.7492909, "log_pop": 4.892718, "log_mass": 7.666726, "log_pop_c": -0.184609, "log_mass_c": -0.04714, "lat": 52.4864387980536, "lon": 4.64572349869672}, {"country_iso": "NLD", "city_id": 2155, "city": "Haarlem", "pop_total": 136814.979929552, "mass_total": 42914805.9746678, "log_pop": 5.136134, "log_mass": 7.632607, "log_pop_c": 0.058806, "log_mass_c": -0.081259, "lat": 52.3811324687945, "lon": 4.64288900619739}, {"country_iso": "NLD", "city_id": 2163, "city": "Dordrecht", "pop_total": 159852.397263238, "mass_total": 72830089.1198547, "log_pop": 5.203719, "log_mass": 7.862311, "log_pop_c": 0.126392, "log_mass_c": 0.148445, "lat": 51.8160869579433, "lon": 4.67673499037485}, {"country_iso": "NLD", "city_id": 2164, "city": "Gouda", "pop_total": 56516.4680398712, "mass_total": 22492061.4093261, "log_pop": 4.752175, "log_mass": 7.352029, "log_pop_c": -0.325152, "log_mass_c": -0.361837, "lat": 52.0265789948831, "lon": 4.69459268653659}, {"country_iso": "NLD", "city_id": 2166, "city": "Alkmaar", "pop_total": 98794.1010511073, "mass_total": 42883490.3387524, "log_pop": 4.994731, "log_mass": 7.63229, "log_pop_c": -0.082596, "log_mass_c": -0.081576, "lat": 52.6547880405526, "lon": 4.78622335068549}, {"country_iso": "NLD", "city_id": 2167, "city": "Amsterdam", "pop_total": 757787.202081937, "mass_total": 288122846.08771, "log_pop": 5.879547, "log_mass": 8.459578, "log_pop_c": 0.80222, "log_mass_c": 0.745712, "lat": 52.3557549520963, "lon": 4.85058249841724}, {"country_iso": "NLD", "city_id": 2169, "city": "Breda", "pop_total": 90511.843259083, "mass_total": 45177592.3501146, "log_pop": 4.956705, "log_mass": 7.654923, "log_pop_c": -0.120622, "log_mass_c": -0.058943, "lat": 51.5899008194968, "lon": 4.77160346911316}, {"country_iso": "NLD", "city_id": 2176, "city": "Purmerend", "pop_total": 52052.8177117544, "mass_total": 15516080.5715854, "log_pop": 4.716444, "log_mass": 7.190782, "log_pop_c": -0.360883, "log_mass_c": -0.523084, "lat": 52.5049388032441, "lon": 4.96382494172118}, {"country_iso": "NLD", "city_id": 2181, "city": "Utrecht", "pop_total": 291908.687707264, "mass_total": 107945356.483371, "log_pop": 5.465247, "log_mass": 8.033204, "log_pop_c": 0.38792, "log_mass_c": 0.319338, "lat": 52.0754999218092, "lon": 5.08188036382574}, {"country_iso": "NLD", "city_id": 2183, "city": "Tilburg", "pop_total": 122247.963852073, "mass_total": 56971633.6625082, "log_pop": 5.087242, "log_mass": 7.755659, "log_pop_c": 0.009914, "log_mass_c": 0.041793, "lat": 51.5649543933412, "lon": 5.06196397479954}, {"country_iso": "NLD", "city_id": 2187, "city": "Almere", "pop_total": 90507.2743323719, "mass_total": 36723070.9199187, "log_pop": 4.956683, "log_mass": 7.564939, "log_pop_c": -0.120644, "log_mass_c": -0.148927, "lat": 52.3820064084146, "lon": 5.23522677479444}, {"country_iso": "NLD", "city_id": 2194, "city": "'s-Hertogenbosch", "pop_total": 79250.043397291, "mass_total": 37073192.9200829, "log_pop": 4.899, "log_mass": 7.56906, "log_pop_c": -0.178328, "log_mass_c": -0.144806, "lat": 51.7088533140702, "lon": 5.31597438565206}, {"country_iso": "NLD", "city_id": 2199, "city": "Amersfoort", "pop_total": 93401.3606929872, "mass_total": 33122270.4912967, "log_pop": 4.970353, "log_mass": 7.52012, "log_pop_c": -0.106974, "log_mass_c": -0.193746, "lat": 52.1705220504447, "lon": 5.39275437425004}, {"country_iso": "NLD", "city_id": 2205, "city": "Eindhoven", "pop_total": 192792.255542402, "mass_total": 90252443.3893776, "log_pop": 5.28509, "log_mass": 7.955459, "log_pop_c": 0.207762, "log_mass_c": 0.241593, "lat": 51.4443417459713, "lon": 5.4651346891574}, {"country_iso": "NLD", "city_id": 2219, "city": "Nijmegen", "pop_total": 118693.571094976, "mass_total": 49034754.2097325, "log_pop": 5.074427, "log_mass": 7.690504, "log_pop_c": -0.0029, "log_mass_c": -0.023362, "lat": 51.8286138225019, "lon": 5.81389850725}, {"country_iso": "NLD", "city_id": 2220, "city": "Maastricht", "pop_total": 76468.1957707284, "mass_total": 35080180.3496836, "log_pop": 4.883481, "log_mass": 7.545062, "log_pop_c": -0.193847, "log_mass_c": -0.168804, "lat": 50.8524925047974, "lon": 5.70336275170443}, {"country_iso": "NLD", "city_id": 2226, "city": "Arnhem", "pop_total": 108801.921738974, "mass_total": 52108730.3352633, "log_pop": 5.036637, "log_mass": 7.71691, "log_pop_c": -0.040691, "log_mass_c": 0.003045, "lat": 51.9652530757779, "lon": 5.93003483421653}, {"country_iso": "NLD", "city_id": 2229, "city": "Apeldoorn", "pop_total": 61588.1619805458, "mass_total": 34643340.952905, "log_pop": 4.789497, "log_mass": 7.53962, "log_pop_c": -0.28783, "log_mass_c": -0.174246, "lat": 52.2083135954074, "lon": 5.9728839382815}, {"country_iso": "NLD", "city_id": 2233, "city": "Zwolle", "pop_total": 60511.5715283282, "mass_total": 27941097.4335763, "log_pop": 4.781838, "log_mass": 7.446243, "log_pop_c": -0.295489, "log_mass_c": -0.267622, "lat": 52.5123248492069, "lon": 6.09227533403331}, {"country_iso": "NLD", "city_id": 2235, "city": "Heerlen", "pop_total": 162071.509227238, "mass_total": 83858430.5622481, "log_pop": 5.209707, "log_mass": 7.923547, "log_pop_c": 0.132379, "log_mass_c": 0.209681, "lat": 50.8909945352316, "lon": 6.03766576379378}, {"country_iso": "NLD", "city_id": 2269, "city": "Groningen", "pop_total": 103529.062783299, "mass_total": 39851474.8369672, "log_pop": 5.015062, "log_mass": 7.600444, "log_pop_c": -0.062265, "log_mass_c": -0.113421, "lat": 53.2199868450197, "lon": 6.57569751065367}, {"country_iso": "NLD", "city_id": 2292, "city": "Hengelo", "pop_total": 51292.6816485695, "mass_total": 27172201.9735036, "log_pop": 4.710055, "log_mass": 7.434125, "log_pop_c": -0.367272, "log_mass_c": -0.279741, "lat": 52.2752317959493, "lon": 6.78934162415853}, {"country_iso": "NLD", "city_id": 2298, "city": "Enschede", "pop_total": 73108.0997841293, "mass_total": 35990003.8955288, "log_pop": 4.863965, "log_mass": 7.556182, "log_pop_c": -0.213362, "log_mass_c": -0.157684, "lat": 52.2157935202799, "lon": 6.89241424603362}]