[{"country_iso": "UKR", "city_id": 3313, "city": "Uzhhorod", "pop_total": 60301.3930992196, "mass_total": 24913374.935868, "log_pop": 4.780327, "log_mass": 7.396433, "log_pop_c": -0.417647, "log_mass_c": -0.345649, "lat": 48.6192583176143, "lon": 22.2970296417862}, {"country_iso": "UKR", "city_id": 3329, "city": "Mukachevo", "pop_total": 51639.4156467587, "mass_total": 17326965.5620585, "log_pop": 4.712981, "log_mass": 7.238723, "log_pop_c": -0.484993, "log_mass_c": -0.503359, "lat": 48.4402345066833, "lon": 22.7164712287244}, {"country_iso": "UKR", "city_id": 3351, "city": "Lviv", "pop_total": 403444.450696039, "mass_total": 105716210.565625, "log_pop": 5.605784, "log_mass": 8.024142, "log_pop_c": 0.407809, "log_mass_c": 0.28206, "lat": 49.835821368533, "lon": 24.0191879317147}, {"country_iso": "UKR", "city_id": 3375, "city": "Lutsk", "pop_total": 113789.151530637, "mass_total": 39630152.01477, "log_pop": 5.056101, "log_mass": 7.598026, "log_pop_c": -0.141874, "log_mass_c": -0.144056, "lat": 50.7494518659693, "lon": 25.3375674227021}, {"country_iso": "UKR", "city_id": 3376, "city": "Ivano-Frankivsk", "pop_total": 162879.407544359, "mass_total": 42984596.7567, "log_pop": 5.211866, "log_mass": 7.633313, "log_pop_c": 0.013892, "log_mass_c": -0.108769, "lat": 48.9207736164191, "lon": 24.7112139943035}, {"country_iso": "UKR", "city_id": 3394, "city": "Ternopil", "pop_total": 110496.002568326, "mass_total": 31850346.186987, "log_pop": 5.043347, "log_mass": 7.503114, "log_pop_c": -0.154628, "log_mass_c": -0.238967, "lat": 49.558414170984, "lon": 25.5944638322311}, {"country_iso": "UKR", "city_id": 3402, "city": "Rivne", "pop_total": 142494.36575274, "mass_total": 33211487.7871928, "log_pop": 5.153798, "log_mass": 7.521288, "log_pop_c": -0.044177, "log_mass_c": -0.220793, "lat": 50.6262502002178, "lon": 26.2433838638969}, {"country_iso": "UKR", "city_id": 3413, "city": "Chernivtsi", "pop_total": 121860.349337065, "mass_total": 47727689.1727644, "log_pop": 5.085862, "log_mass": 7.67877, "log_pop_c": -0.112112, "log_mass_c": -0.063311, "lat": 48.3009237391904, "lon": 25.9405288456991}, {"country_iso": "UKR", "city_id": 3425, "city": "Kamianets-Podilskyi", "pop_total": 56603.256522742, "mass_total": 20366651.4812162, "log_pop": 4.752841, "log_mass": 7.30892, "log_pop_c": -0.445133, "log_mass_c": -0.433162, "lat": 48.6896388458054, "lon": 26.58508757065}, {"country_iso": "UKR", "city_id": 3431, "city": "Khmelnytskyi", "pop_total": 162637.91439917, "mass_total": 46220133.000822, "log_pop": 5.211222, "log_mass": 7.664831, "log_pop_c": 0.013247, "log_mass_c": -0.07725, "lat": 49.418915851405, "lon": 26.9852303276038}, {"country_iso": "UKR", "city_id": 3462, "city": "Zhytomyr", "pop_total": 149181.260550773, "mass_total": 48320057.6545319, "log_pop": 5.173714, "log_mass": 7.684127, "log_pop_c": -0.02426, "log_mass_c": -0.057954, "lat": 50.2680671806599, "lon": 28.6775956117535}, {"country_iso": "UKR", "city_id": 3469, "city": "Vinnytsia", "pop_total": 251204.309886258, "mass_total": 65635418.8547769, "log_pop": 5.400027, "log_mass": 7.817138, "log_pop_c": 0.202053, "log_mass_c": 0.075057, "lat": 49.2297564866512, "lon": 28.4812755499073}, {"country_iso": "UKR", "city_id": 3517, "city": "Kyiv", "pop_total": 1736715.06347623, "mass_total": 448074846.430425, "log_pop": 6.239729, "log_mass": 8.651351, "log_pop_c": 1.041754, "log_mass_c": 0.909269, "lat": 50.4411091127035, "lon": 30.5224377178959}, {"country_iso": "UKR", "city_id": 3518, "city": "Bila Tserkva", "pop_total": 139878.645125531, "mass_total": 30139881.1509784, "log_pop": 5.145751, "log_mass": 7.479142, "log_pop_c": -0.052223, "log_mass_c": -0.26294, "lat": 49.8003961189067, "lon": 30.124979595083}, {"country_iso": "UKR", "city_id": 3527, "city": "Brovary", "pop_total": 75772.3186915164, "mass_total": 21750272.1949714, "log_pop": 4.879511, "log_mass": 7.337465, "log_pop_c": -0.318464, "log_mass_c": -0.404617, "lat": 50.5080581431064, "lon": 30.7843948984823}, {"country_iso": "UKR", "city_id": 3532, "city": "Chernihiv", "pop_total": 174979.203211994, "mass_total": 47050484.3240697, "log_pop": 5.242986, "log_mass": 7.672564, "log_pop_c": 0.045012, "log_mass_c": -0.069518, "lat": 51.5029068448537, "lon": 31.2785016349411}, {"country_iso": "UKR", "city_id": 3581, "city": "Odesa", "pop_total": 841718.840341527, "mass_total": 176078826.058105, "log_pop": 5.925167, "log_mass": 8.245707, "log_pop_c": 0.727193, "log_mass_c": 0.503626, "lat": 46.4475090898549, "lon": 30.7144726361651}, {"country_iso": "UKR", "city_id": 3592, "city": "Cherkasy", "pop_total": 187873.271402339, "mass_total": 45591643.2532909, "log_pop": 5.273865, "log_mass": 7.658885, "log_pop_c": 0.075891, "log_mass_c": -0.083196, "lat": 49.4186358223077, "lon": 32.0733013445844}, {"country_iso": "UKR", "city_id": 3616, "city": "Kropyvnytskyi", "pop_total": 137244.553328674, "mass_total": 44860518.4788339, "log_pop": 5.137495, "log_mass": 7.651864, "log_pop_c": -0.060479, "log_mass_c": -0.090217, "lat": 48.5074584576316, "lon": 32.2638032284711}, {"country_iso": "UKR", "city_id": 3626, "city": "Mykolaiv", "pop_total": 352353.180694629, "mass_total": 86759216.3726357, "log_pop": 5.546978, "log_mass": 7.938316, "log_pop_c": 0.349004, "log_mass_c": 0.196234, "lat": 46.9636530810468, "lon": 32.0079414422344}, {"country_iso": "UKR", "city_id": 3651, "city": "Kremenchuk", "pop_total": 111856.985623127, "mass_total": 49243599.2080962, "log_pop": 5.048663, "log_mass": 7.69235, "log_pop_c": -0.149311, "log_mass_c": -0.049732, "lat": 49.0698714465519, "lon": 33.4447474239456}, {"country_iso": "UKR", "city_id": 3655, "city": "Kherson", "pop_total": 170716.708431757, "mass_total": 67428367.0207468, "log_pop": 5.232276, "log_mass": 7.828843, "log_pop_c": 0.034302, "log_mass_c": 0.086761, "lat": 46.6546528282874, "lon": 32.6227540922827}, {"country_iso": "UKR", "city_id": 3670, "city": "Kryvyi Rih", "pop_total": 397681.635704229, "mass_total": 222167029.840081, "log_pop": 5.599536, "log_mass": 8.34668, "log_pop_c": 0.401561, "log_mass_c": 0.604598, "lat": 47.8966479442503, "lon": 33.3906532340722}, {"country_iso": "UKR", "city_id": 3680, "city": "Sumy", "pop_total": 123978.06836719, "mass_total": 49630184.7894848, "log_pop": 5.093345, "log_mass": 7.695746, "log_pop_c": -0.10463, "log_mass_c": -0.046336, "lat": 50.9158434738955, "lon": 34.7983661628822}, {"country_iso": "UKR", "city_id": 3702, "city": "Poltava", "pop_total": 157030.6262471, "mass_total": 53423987.1692454, "log_pop": 5.195984, "log_mass": 7.727736, "log_pop_c": -0.00199, "log_mass_c": -0.014345, "lat": 49.5891574653151, "lon": 34.5536246297946}, {"country_iso": "UKR", "city_id": 3731, "city": "Kamianske", "pop_total": 111276.557509245, "mass_total": 59274433.9026126, "log_pop": 5.046404, "log_mass": 7.772867, "log_pop_c": -0.151571, "log_mass_c": 0.030786, "lat": 48.4978341724552, "lon": 34.6474911249408}, {"country_iso": "UKR", "city_id": 3738, "city": "Yevpatoriya", "pop_total": 76814.6107743225, "mass_total": 21943820.2890387, "log_pop": 4.885444, "log_mass": 7.341312, "log_pop_c": -0.312531, "log_mass_c": -0.400769, "lat": 45.2021187491103, "lon": 33.3616539428077}, {"country_iso": "UKR", "city_id": 3744, "city": "Nikopol", "pop_total": 100265.899799929, "mass_total": 37613340.7974095, "log_pop": 5.001153, "log_mass": 7.575342, "log_pop_c": -0.196821, "log_mass_c": -0.16674, "lat": 47.5732438997792, "lon": 34.3845304398814}, {"country_iso": "UKR", "city_id": 3754, "city": "Dnipro", "pop_total": 620287.622264005, "mass_total": 232829735.316532, "log_pop": 5.792593, "log_mass": 8.367038, "log_pop_c": 0.594619, "log_mass_c": 0.624957, "lat": 48.4593766654966, "lon": 35.0324154862564}, {"country_iso": "UKR", "city_id": 3755, "city": "Sevastopol", "pop_total": 101337.664207691, "mass_total": 66601311.0474075, "log_pop": 5.005771, "log_mass": 7.823483, "log_pop_c": -0.192204, "log_mass_c": 0.081401, "lat": 44.5951934492069, "lon": 33.521262394694}, {"country_iso": "UKR", "city_id": 3769, "city": "Zaporizhzhia", "pop_total": 541515.45967816, "mass_total": 197044132.845822, "log_pop": 5.733611, "log_mass": 8.294564, "log_pop_c": 0.535636, "log_mass_c": 0.552482, "lat": 47.8396819032333, "lon": 35.1509770635076}, {"country_iso": "UKR", "city_id": 3781, "city": "Kharkiv", "pop_total": 1007919.86235333, "mass_total": 245616456.639536, "log_pop": 6.003426, "log_mass": 8.390257, "log_pop_c": 0.805452, "log_mass_c": 0.648176, "lat": 49.9837509970958, "lon": 36.2661384424153}, {"country_iso": "UKR", "city_id": 3788, "city": "Simferopol", "pop_total": 238929.970453647, "mass_total": 75428744.0046427, "log_pop": 5.378271, "log_mass": 7.877537, "log_pop_c": 0.180296, "log_mass_c": 0.135455, "lat": 44.9463627956818, "lon": 34.1109835452003}, {"country_iso": "UKR", "city_id": 3825, "city": "Melitopol", "pop_total": 63753.56266969, "mass_total": 36877936.8684004, "log_pop": 4.804504, "log_mass": 7.566767, "log_pop_c": -0.39347, "log_mass_c": -0.175315, "lat": 46.8477608674132, "lon": 35.3618284366732}, {"country_iso": "UKR", "city_id": 4020, "city": "Sloviansk", "pop_total": 73698.2098756685, "mass_total": 34066005.838164, "log_pop": 4.867457, "log_mass": 7.532321, "log_pop_c": -0.330518, "log_mass_c": -0.20976, "lat": 48.8476814957386, "lon": 37.6063207919705}, {"country_iso": "UKR", "city_id": 4024, "city": "Kramatorsk", "pop_total": 78826.4012480792, "mass_total": 46326377.3072191, "log_pop": 4.896672, "log_mass": 7.665828, "log_pop_c": -0.301303, "log_mass_c": -0.076253, "lat": 48.7358238985914, "lon": 37.570172235335}, {"country_iso": "UKR", "city_id": 4037, "city": "Berdiansk", "pop_total": 52137.904274257, "mass_total": 27806359.0095036, "log_pop": 4.717154, "log_mass": 7.444144, "log_pop_c": -0.480821, "log_mass_c": -0.297937, "lat": 46.7663168169363, "lon": 36.7776698154017}, {"country_iso": "UKR", "city_id": 4072, "city": "Kerch", "pop_total": 56258.5329273214, "mass_total": 22076934.5446965, "log_pop": 4.750188, "log_mass": 7.343939, "log_pop_c": -0.447786, "log_mass_c": -0.398143, "lat": 45.3522224290734, "lon": 36.5066008199911}, {"country_iso": "UKR", "city_id": 4083, "city": "Donetsk", "pop_total": 655865.876548073, "mass_total": 256751504.230213, "log_pop": 5.816815, "log_mass": 8.409513, "log_pop_c": 0.618841, "log_mass_c": 0.667431, "lat": 48.0114330114616, "lon": 37.8452106898765}, {"country_iso": "UKR", "city_id": 4097, "city": "Horlivka", "pop_total": 107118.607110233, "mass_total": 65003671.8719329, "log_pop": 5.029865, "log_mass": 7.812938, "log_pop_c": -0.16811, "log_mass_c": 0.070856, "lat": 48.3239848850718, "lon": 38.0292844631273}, {"country_iso": "UKR", "city_id": 4110, "city": "Mariupol", "pop_total": 315314.938621332, "mass_total": 140433628.172488, "log_pop": 5.498745, "log_mass": 8.147471, "log_pop_c": 0.30077, "log_mass_c": 0.40539, "lat": 47.1234784995249, "lon": 37.5653775248307}, {"country_iso": "UKR", "city_id": 4122, "city": "Sievierodonetsk", "pop_total": 57044.9515793712, "mass_total": 21446623.7484147, "log_pop": 4.756217, "log_mass": 7.331359, "log_pop_c": -0.441757, "log_mass_c": -0.410723, "lat": 48.945374156042, "lon": 38.4839412313631}, {"country_iso": "UKR", "city_id": 4136, "city": "Khartsyzk", "pop_total": 69513.2123941442, "mass_total": 14853447.5174508, "log_pop": 4.842067, "log_mass": 7.171827, "log_pop_c": -0.355907, "log_mass_c": -0.570254, "lat": 48.0421484728733, "lon": 38.1389256008233}, {"country_iso": "UKR", "city_id": 4175, "city": "Alchevsk", "pop_total": 83961.5366607348, "mass_total": 38257875.4318146, "log_pop": 4.92408, "log_mass": 7.582721, "log_pop_c": -0.273894, "log_mass_c": -0.159361, "lat": 48.4658295419896, "lon": 38.7983463732991}, {"country_iso": "UKR", "city_id": 4213, "city": "Luhansk", "pop_total": 256601.149348804, "mass_total": 88505693.8737724, "log_pop": 5.409259, "log_mass": 7.946971, "log_pop_c": 0.211284, "log_mass_c": 0.20489, "lat": 48.5607634725806, "lon": 39.3180064889535}]