[{"country_iso": "SAU", "city_id": 4907, "city": "Medina", "pop_total": 109099.333753664, "mass_total": 128323937.336203, "log_pop": 5.037822, "log_mass": 8.108308, "log_pop_c": -0.418956, "log_mass_c": -0.260161, "lat": 24.4596290854381, "lon": 39.5910309744152}, {"country_iso": "SAU", "city_id": 4921, "city": "Jeddah", "pop_total": 829803.771595304, "mass_total": 406195261.045192, "log_pop": 5.918975, "log_mass": 8.608735, "log_pop_c": 0.462197, "log_mass_c": 0.240266, "lat": 21.5200615449344, "lon": 39.2140160324034}, {"country_iso": "SAU", "city_id": 5073, "city": "Mecca", "pop_total": 87171.5663876059, "mass_total": 140033622.561433, "log_pop": 4.940375, "log_mass": 8.146232, "log_pop_c": -0.516404, "log_mass_c": -0.222237, "lat": 21.4137699147268, "lon": 39.8310504324191}, {"country_iso": "SAU", "city_id": 5698, "city": "Riyadh", "pop_total": 1560259.53302084, "mass_total": 984018289.144763, "log_pop": 6.193197, "log_mass": 8.993003, "log_pop_c": 0.736418, "log_mass_c": 0.624534, "lat": 24.6884799001034, "lon": 46.7354618136585}, {"country_iso": "SAU", "city_id": 5820, "city": "Dammam", "pop_total": 407779.848443295, "mass_total": 237978865.655382, "log_pop": 5.610426, "log_mass": 8.376538, "log_pop_c": 0.153647, "log_mass_c": 0.008069, "lat": 26.464168959257, "lon": 50.0587069895265}, {"country_iso": "SAU", "city_id": 5826, "city": "Al Khobar", "pop_total": 109616.564834271, "mass_total": 95060072.2653404, "log_pop": 5.039876, "log_mass": 7.977998, "log_pop_c": -0.416902, "log_mass_c": -0.390471, "lat": 26.3193533763341, "lon": 50.1799920258484}]