[{"country_iso": "GBR", "city_id": 1667, "city": "Belfast", "pop_total": 341109.732941588, "mass_total": 129781908.87437, "log_pop": 5.532894, "log_mass": 8.113214, "log_pop_c": 0.427074, "log_mass_c": 0.517116, "lat": 54.6019031861083, "lon": -5.94545220073337}, {"country_iso": "GBR", "city_id": 1707, "city": "Plymouth", "pop_total": 196571.699701544, "mass_total": 58775014.8936174, "log_pop": 5.293521, "log_mass": 7.769193, "log_pop_c": 0.1877, "log_mass_c": 0.173095, "lat": 50.390321224412, "lon": -4.12501528411336}, {"country_iso": "GBR", "city_id": 1709, "city": "Glasgow", "pop_total": 754672.934128318, "mass_total": 268957165.792086, "log_pop": 5.877759, "log_mass": 8.429683, "log_pop_c": 0.771938, "log_mass_c": 0.833585, "lat": 55.8562375752131, "lon": -4.30185276162428}, {"country_iso": "GBR", "city_id": 1713, "city": "Swansea", "pop_total": 103526.067789048, "mass_total": 36247423.6082627, "log_pop": 5.01505, "log_mass": 7.559277, "log_pop_c": -0.090771, "log_mass_c": -0.036821, "lat": 51.6364468162596, "lon": -3.94565632510749}, {"country_iso": "GBR", "city_id": 1718, "city": "Neath", "pop_total": 58208.6354896662, "mass_total": 33637437.5060507, "log_pop": 4.764987, "log_mass": 7.526823, "log_pop_c": -0.340833, "log_mass_c": -0.069275, "lat": 51.61261251969, "lon": -3.80786229027704}, {"country_iso": "GBR", "city_id": 1721, "city": "Hamilton", "pop_total": 50758.0391340786, "mass_total": 17377177.4466019, "log_pop": 4.705505, "log_mass": 7.239979, "log_pop_c": -0.400316, "log_mass_c": -0.356119, "lat": 55.7766534701952, "lon": -4.06951763042527}, {"country_iso": "GBR", "city_id": 1722, "city": "Wishaw", "pop_total": 92975.4105195418, "mass_total": 37830024.3202231, "log_pop": 4.968368, "log_mass": 7.577837, "log_pop_c": -0.137452, "log_mass_c": -0.018261, "lat": 55.7997334015584, "lon": -3.98789023101403}, {"country_iso": "GBR", "city_id": 1723, "city": "Coatbridge", "pop_total": 66344.9670598654, "mass_total": 22120810.6237689, "log_pop": 4.821808, "log_mass": 7.344801, "log_pop_c": -0.284013, "log_mass_c": -0.251297, "lat": 55.8585797967759, "lon": -3.99515780664842}, {"country_iso": "GBR", "city_id": 1726, "city": "Torquay", "pop_total": 77344.0069108431, "mass_total": 23060620.5780403, "log_pop": 4.888427, "log_mass": 7.362871, "log_pop_c": -0.217394, "log_mass_c": -0.233227, "lat": 50.454069606919, "lon": -3.5521999874613}, {"country_iso": "GBR", "city_id": 1729, "city": "Exeter", "pop_total": 80147.472072227, "mass_total": 23364968.2912742, "log_pop": 4.90389, "log_mass": 7.368565, "log_pop_c": -0.201931, "log_mass_c": -0.227533, "lat": 50.7203115401045, "lon": -3.51340525309436}, {"country_iso": "GBR", "city_id": 1741, "city": "Cardiff", "pop_total": 283184.54365718, "mass_total": 81030856.3707464, "log_pop": 5.45207, "log_mass": 7.90865, "log_pop_c": 0.346249, "log_mass_c": 0.312552, "lat": 51.490350227799, "lon": -3.17928185063462}, {"country_iso": "GBR", "city_id": 1749, "city": "Edinburgh", "pop_total": 364886.026573, "mass_total": 105656181.445798, "log_pop": 5.562157, "log_mass": 8.023895, "log_pop_c": 0.456337, "log_mass_c": 0.427797, "lat": 55.9422883877855, "lon": -3.19161889581559}, {"country_iso": "GBR", "city_id": 1751, "city": "Liverpool", "pop_total": 982715.909759273, "mass_total": 314537782.662446, "log_pop": 5.992428, "log_mass": 8.497673, "log_pop_c": 0.886607, "log_mass_c": 0.901575, "lat": 53.4336090032415, "lon": -2.87433096023152}, {"country_iso": "GBR", "city_id": 1752, "city": "Newport", "pop_total": 84344.1122342687, "mass_total": 35536955.2702493, "log_pop": 4.926055, "log_mass": 7.55068, "log_pop_c": -0.179766, "log_mass_c": -0.045418, "lat": 51.5836361384753, "lon": -2.97550167477176}, {"country_iso": "GBR", "city_id": 1753, "city": "Weston-super-Mare", "pop_total": 62198.1321678846, "mass_total": 17051955.7781752, "log_pop": 4.793777, "log_mass": 7.231774, "log_pop_c": -0.312043, "log_mass_c": -0.364324, "lat": 51.3489973799658, "lon": -2.95055797565009}, {"country_iso": "GBR", "city_id": 1755, "city": "Blackpool", "pop_total": 170674.649780858, "mass_total": 54323857.8185448, "log_pop": 5.232169, "log_mass": 7.734991, "log_pop_c": 0.126348, "log_mass_c": 0.138892, "lat": 53.8513187745288, "lon": -3.02643501615483}, {"country_iso": "GBR", "city_id": 1756, "city": "Southport", "pop_total": 57348.238987763, "mass_total": 18621422.6834646, "log_pop": 4.75852, "log_mass": 7.270013, "log_pop_c": -0.3473, "log_mass_c": -0.326085, "lat": 53.6433500207391, "lon": -2.99134168091684}, {"country_iso": "GBR", "city_id": 1760, "city": "Chester", "pop_total": 59338.0966413513, "mass_total": 18024777.4461008, "log_pop": 4.773334, "log_mass": 7.25587, "log_pop_c": -0.332487, "log_mass_c": -0.340228, "lat": 53.1949640221948, "lon": -2.89435675819957}, {"country_iso": "GBR", "city_id": 1763, "city": "Dundee", "pop_total": 117938.829048054, "mass_total": 41704114.3533007, "log_pop": 5.071657, "log_mass": 7.620179, "log_pop_c": -0.034164, "log_mass_c": 0.024081, "lat": 56.4741035021541, "lon": -2.93997901400864}, {"country_iso": "GBR", "city_id": 1764, "city": "Lancaster", "pop_total": 70642.5206491283, "mass_total": 22992105.5343176, "log_pop": 4.849066, "log_mass": 7.361579, "log_pop_c": -0.256754, "log_mass_c": -0.234519, "lat": 54.0540870325348, "lon": -2.85524168447393}, {"country_iso": "GBR", "city_id": 1771, "city": "Bristol", "pop_total": 460046.15670802, "mass_total": 130840965.070823, "log_pop": 5.662801, "log_mass": 8.116744, "log_pop_c": 0.556981, "log_mass_c": 0.520646, "lat": 51.4757083184176, "lon": -2.58204609227948}, {"country_iso": "GBR", "city_id": 1772, "city": "Runcorn", "pop_total": 82727.485230744, "mass_total": 35637911.4748852, "log_pop": 4.91765, "log_mass": 7.551912, "log_pop_c": -0.188171, "log_mass_c": -0.044186, "lat": 53.3496492258273, "lon": -2.72284381830189}, {"country_iso": "GBR", "city_id": 1773, "city": "Preston", "pop_total": 160680.781049514, "mass_total": 51557111.4421695, "log_pop": 5.205964, "log_mass": 7.712289, "log_pop_c": 0.100143, "log_mass_c": 0.11619, "lat": 53.7426490693294, "lon": -2.69674954626647}, {"country_iso": "GBR", "city_id": 1775, "city": "Warrington", "pop_total": 114853.690142488, "mass_total": 39821038.9440469, "log_pop": 5.060145, "log_mass": 7.600113, "log_pop_c": -0.045676, "log_mass_c": 0.004014, "lat": 53.3969723701575, "lon": -2.58074253978441}, {"country_iso": "GBR", "city_id": 1776, "city": "Atherton", "pop_total": 95140.0354676634, "mass_total": 27684101.3435729, "log_pop": 4.978363, "log_mass": 7.44223, "log_pop_c": -0.127457, "log_mass_c": -0.153868, "lat": 53.5182304510611, "lon": -2.51161228017527}, {"country_iso": "GBR", "city_id": 1777, "city": "Telford", "pop_total": 85555.6079271396, "mass_total": 33507832.2140496, "log_pop": 4.932248, "log_mass": 7.525146, "log_pop_c": -0.173572, "log_mass_c": -0.070952, "lat": 52.6857111493792, "lon": -2.46753213736657}, {"country_iso": "GBR", "city_id": 1778, "city": "Blackburn", "pop_total": 102153.982319935, "mass_total": 29771955.7980637, "log_pop": 5.009255, "log_mass": 7.473807, "log_pop_c": -0.096565, "log_mass_c": -0.122291, "lat": 53.7345511016044, "lon": -2.48132653591715}, {"country_iso": "GBR", "city_id": 1780, "city": "Manchester", "pop_total": 1611675.36267274, "mass_total": 491901595.609668, "log_pop": 6.207278, "log_mass": 8.691878, "log_pop_c": 1.101457, "log_mass_c": 1.09578, "lat": 53.4920374381354, "lon": -2.24161780870964}, {"country_iso": "GBR", "city_id": 1781, "city": "Crewe", "pop_total": 52675.5423913939, "mass_total": 17069384.4899332, "log_pop": 4.721609, "log_mass": 7.232218, "log_pop_c": -0.384212, "log_mass_c": -0.36388, "lat": 53.0929261311316, "lon": -2.45095201472027}, {"country_iso": "GBR", "city_id": 1782, "city": "Bath", "pop_total": 55832.3946550986, "mass_total": 13188888.5433841, "log_pop": 4.746886, "log_mass": 7.120208, "log_pop_c": -0.358934, "log_mass_c": -0.47589, "lat": 51.3801440856178, "lon": -2.37247079868603}, {"country_iso": "GBR", "city_id": 1790, "city": "Gloucester", "pop_total": 104301.608987247, "mass_total": 31269679.7357606, "log_pop": 5.018291, "log_mass": 7.495123, "log_pop_c": -0.08753, "log_mass_c": -0.100975, "lat": 51.8530494476823, "lon": -2.22587732781488}, {"country_iso": "GBR", "city_id": 1792, "city": "Bury", "pop_total": 50627.2591529147, "mass_total": 17051033.6023098, "log_pop": 4.704384, "log_mass": 7.231751, "log_pop_c": -0.401436, "log_mass_c": -0.364347, "lat": 53.6087520864811, "lon": -2.31222687669741}, {"country_iso": "GBR", "city_id": 1794, "city": "Burnley", "pop_total": 94574.3819698983, "mass_total": 28074950.9058416, "log_pop": 4.975774, "log_mass": 7.448319, "log_pop_c": -0.130047, "log_mass_c": -0.147779, "lat": 53.8147033737081, "lon": -2.23044330745617}, {"country_iso": "GBR", "city_id": 1795, "city": "Stoke-on-Trent", "pop_total": 228530.441614114, "mass_total": 83484224.0361822, "log_pop": 5.358944, "log_mass": 7.921604, "log_pop_c": 0.253124, "log_mass_c": 0.325506, "lat": 53.0149517362983, "lon": -2.18049204411169}, {"country_iso": "GBR", "city_id": 1796, "city": "Worcester", "pop_total": 72494.9564841258, "mass_total": 20803374.5240614, "log_pop": 4.860308, "log_mass": 7.318134, "log_pop_c": -0.245513, "log_mass_c": -0.277964, "lat": 52.1953801749086, "lon": -2.21499471071991}, {"country_iso": "GBR", "city_id": 1800, "city": "Birmingham", "pop_total": 1837396.46011488, "mass_total": 568067722.412613, "log_pop": 6.264203, "log_mass": 8.7544, "log_pop_c": 1.158382, "log_mass_c": 1.158302, "lat": 52.5122144172542, "lon": -1.96547426368179}, {"country_iso": "GBR", "city_id": 1803, "city": "Cheltenham", "pop_total": 80737.2922891417, "mass_total": 21335725.4907748, "log_pop": 4.907074, "log_mass": 7.329107, "log_pop_c": -0.198746, "log_mass_c": -0.266991, "lat": 51.8981497566538, "lon": -2.08149322752463}, {"country_iso": "GBR", "city_id": 1806, "city": "Bournemouth", "pop_total": 275529.465788792, "mass_total": 77026885.694257, "log_pop": 5.440168, "log_mass": 7.886642, "log_pop_c": 0.334348, "log_mass_c": 0.290544, "lat": 50.7327985036029, "lon": -1.9217658885958}, {"country_iso": "GBR", "city_id": 1809, "city": "Aberdeen", "pop_total": 151416.318723869, "mass_total": 53506267.9901714, "log_pop": 5.180173, "log_mass": 7.728405, "log_pop_c": 0.074352, "log_mass_c": 0.132307, "lat": 57.1526492975218, "lon": -2.12315444432692}, {"country_iso": "GBR", "city_id": 1810, "city": "Great Wyrley", "pop_total": 60000.8562677968, "mass_total": 20978552.5660353, "log_pop": 4.778157, "log_mass": 7.321776, "log_pop_c": -0.327663, "log_mass_c": -0.274323, "lat": 52.6908467349461, "lon": -2.01421018131337}, {"country_iso": "GBR", "city_id": 1815, "city": "Huddersfield", "pop_total": 181034.135823126, "mass_total": 58835815.7589377, "log_pop": 5.25776, "log_mass": 7.769642, "log_pop_c": 0.15194, "log_mass_c": 0.173544, "lat": 53.6793252027942, "lon": -1.82644105123085}, {"country_iso": "GBR", "city_id": 1816, "city": "Swindon", "pop_total": 138981.335424222, "mass_total": 41549599.8165202, "log_pop": 5.142956, "log_mass": 7.618567, "log_pop_c": 0.037136, "log_mass_c": 0.022469, "lat": 51.5722438109642, "lon": -1.78533335292275}, {"country_iso": "GBR", "city_id": 1819, "city": "Leeds", "pop_total": 926586.761527705, "mass_total": 298767411.761071, "log_pop": 5.966886, "log_mass": 8.475333, "log_pop_c": 0.861066, "log_mass_c": 0.879235, "lat": 53.7674035523565, "lon": -1.62222808703206}, {"country_iso": "GBR", "city_id": 1828, "city": "Fazeley", "pop_total": 53638.5240911662, "mass_total": 16556545.8584256, "log_pop": 4.729477, "log_mass": 7.21897, "log_pop_c": -0.376344, "log_mass_c": -0.377128, "lat": 52.6222563307136, "lon": -1.68223616514527}, {"country_iso": "GBR", "city_id": 1830, "city": "Newcastle upon Tyne", "pop_total": 575950.981481122, "mass_total": 198644774.464221, "log_pop": 5.760386, "log_mass": 8.298077, "log_pop_c": 0.654565, "log_mass_c": 0.701979, "lat": 54.9853620861397, "lon": -1.55953991737701}, {"country_iso": "GBR", "city_id": 1833, "city": "Warwick", "pop_total": 67555.2937311882, "mass_total": 17745929.7352215, "log_pop": 4.829659, "log_mass": 7.249099, "log_pop_c": -0.276161, "log_mass_c": -0.346999, "lat": 52.2866241417185, "lon": -1.54398738106332}, {"country_iso": "GBR", "city_id": 1834, "city": "Coventry", "pop_total": 322586.599783257, "mass_total": 91229621.0960398, "log_pop": 5.508646, "log_mass": 7.960136, "log_pop_c": 0.402826, "log_mass_c": 0.364038, "lat": 52.4447339508799, "lon": -1.49974642981265}, {"country_iso": "GBR", "city_id": 1835, "city": "Southampton", "pop_total": 250806.178200742, "mass_total": 66683795.5513234, "log_pop": 5.399338, "log_mass": 7.82402, "log_pop_c": 0.293518, "log_mass_c": 0.227922, "lat": 50.9082162097111, "lon": -1.40041058205953}, {"country_iso": "GBR", "city_id": 1836, "city": "Birtley", "pop_total": 58721.2197407892, "mass_total": 24704256.6598761, "log_pop": 4.768795, "log_mass": 7.392772, "log_pop_c": -0.337025, "log_mass_c": -0.203326, "lat": 54.8903040155756, "lon": -1.54369384248371}, {"country_iso": "GBR", "city_id": 1837, "city": "Darlington", "pop_total": 65507.4348883554, "mass_total": 20549084.5985092, "log_pop": 4.816291, "log_mass": 7.312792, "log_pop_c": -0.28953, "log_mass_c": -0.283306, "lat": 54.5310640368313, "lon": -1.55041195510083}, {"country_iso": "GBR", "city_id": 1838, "city": "Sheffield", "pop_total": 507444.734184676, "mass_total": 168693426.05875, "log_pop": 5.705389, "log_mass": 8.227098, "log_pop_c": 0.599568, "log_mass_c": 0.631, "lat": 53.3888769871998, "lon": -1.41789929069709}, {"country_iso": "GBR", "city_id": 1839, "city": "Derby", "pop_total": 198700.985519219, "mass_total": 58798500.9631707, "log_pop": 5.2982, "log_mass": 7.769366, "log_pop_c": 0.192379, "log_mass_c": 0.173268, "lat": 52.9129259048233, "lon": -1.46785900439944}, {"country_iso": "GBR", "city_id": 1841, "city": "Cudworth", "pop_total": 76526.5924673309, "mass_total": 30144077.8854141, "log_pop": 4.883812, "log_mass": 7.479202, "log_pop_c": -0.222008, "log_mass_c": -0.116896, "lat": 53.5660268453385, "lon": -1.47845347886004}, {"country_iso": "GBR", "city_id": 1847, "city": "Wath upon Dearne", "pop_total": 63506.484891079, "mass_total": 23792792.9960686, "log_pop": 4.802818, "log_mass": 7.376445, "log_pop_c": -0.303002, "log_mass_c": -0.219653, "lat": 53.5066951545153, "lon": -1.35568599571922}, {"country_iso": "GBR", "city_id": 1849, "city": "Sunderland", "pop_total": 130901.301312581, "mass_total": 47011936.3613361, "log_pop": 5.116944, "log_mass": 7.672208, "log_pop_c": 0.011123, "log_mass_c": 0.07611, "lat": 54.9012023299749, "lon": -1.40536247407028}, {"country_iso": "GBR", "city_id": 1851, "city": "Pontefract", "pop_total": 63977.8510103641, "mass_total": 27645018.9582603, "log_pop": 4.80603, "log_mass": 7.441617, "log_pop_c": -0.299791, "log_mass_c": -0.154481, "lat": 53.7109775010795, "lon": -1.35298082636578}, {"country_iso": "GBR", "city_id": 1856, "city": "Middlesbrough", "pop_total": 254007.312726095, "mass_total": 129797015.764118, "log_pop": 5.404846, "log_mass": 8.113265, "log_pop_c": 0.299026, "log_mass_c": 0.517167, "lat": 54.5744808455448, "lon": -1.23068524136403}, {"country_iso": "GBR", "city_id": 1857, "city": "Nottingham", "pop_total": 471065.216356983, "mass_total": 134412677.757678, "log_pop": 5.673081, "log_mass": 8.12844, "log_pop_c": 0.567261, "log_mass_c": 0.532342, "lat": 52.9538860056964, "lon": -1.18442884088492}, {"country_iso": "GBR", "city_id": 1858, "city": "Oxford", "pop_total": 116344.12123018, "mass_total": 27989033.9771299, "log_pop": 5.065744, "log_mass": 7.446988, "log_pop_c": -0.040076, "log_mass_c": -0.14911, "lat": 51.7503677486554, "lon": -1.23826192859789}, {"country_iso": "GBR", "city_id": 1859, "city": "Rugby", "pop_total": 51148.4649030644, "mass_total": 16416350.7881691, "log_pop": 4.708833, "log_mass": 7.215277, "log_pop_c": -0.396988, "log_mass_c": -0.380821, "lat": 52.372177210132, "lon": -1.26390294152753}, {"country_iso": "GBR", "city_id": 1860, "city": "Mansfield", "pop_total": 110678.177087096, "mass_total": 38721572.9575164, "log_pop": 5.044062, "log_mass": 7.587953, "log_pop_c": -0.061759, "log_mass_c": -0.008145, "lat": 53.1330825874085, "lon": -1.22608826840649}, {"country_iso": "GBR", "city_id": 1861, "city": "Portsmouth", "pop_total": 361687.484095886, "mass_total": 86190168.1895688, "log_pop": 5.558333, "log_mass": 7.935458, "log_pop_c": 0.452513, "log_mass_c": 0.33936, "lat": 50.8335294136903, "lon": -1.09939058615062}, {"country_iso": "GBR", "city_id": 1864, "city": "Leicester", "pop_total": 372481.425558754, "mass_total": 96768487.9058153, "log_pop": 5.571105, "log_mass": 7.985734, "log_pop_c": 0.465284, "log_mass_c": 0.389636, "lat": 52.6283022528551, "lon": -1.13009381791164}, {"country_iso": "GBR", "city_id": 1865, "city": "Hartlepool", "pop_total": 66868.7912896631, "mass_total": 25975891.2738959, "log_pop": 4.825223, "log_mass": 7.41457, "log_pop_c": -0.280597, "log_mass_c": -0.181528, "lat": 54.6807609193026, "lon": -1.21529910757723}, {"country_iso": "GBR", "city_id": 1867, "city": "Doncaster", "pop_total": 93719.984908097, "mass_total": 35065328.6505421, "log_pop": 4.971832, "log_mass": 7.544878, "log_pop_c": -0.133988, "log_mass_c": -0.05122, "lat": 53.5274096844422, "lon": -1.12721452883797}, {"country_iso": "GBR", "city_id": 1869, "city": "Basingstoke", "pop_total": 67727.993390121, "mass_total": 19666745.0909928, "log_pop": 4.830768, "log_mass": 7.293732, "log_pop_c": -0.275052, "log_mass_c": -0.302366, "lat": 51.2629463516818, "lon": -1.10059499277343}, {"country_iso": "GBR", "city_id": 1874, "city": "York", "pop_total": 111912.583253742, "mass_total": 29681718.1459974, "log_pop": 5.048879, "log_mass": 7.472489, "log_pop_c": -0.056942, "log_mass_c": -0.123609, "lat": 53.9622924316969, "lon": -1.08694425561596}, {"country_iso": "GBR", "city_id": 1877, "city": "Reading", "pop_total": 175993.128094477, "mass_total": 44781096.3642176, "log_pop": 5.245496, "log_mass": 7.651095, "log_pop_c": 0.139675, "log_mass_c": 0.054997, "lat": 51.4498489188529, "lon": -0.971776980128894}, {"country_iso": "GBR", "city_id": 1880, "city": "Northampton", "pop_total": 153983.095789424, "mass_total": 45042907.3662495, "log_pop": 5.187473, "log_mass": 7.653626, "log_pop_c": 0.081653, "log_mass_c": 0.057528, "lat": 52.2454059705551, "lon": -0.882146415782033}, {"country_iso": "GBR", "city_id": 1887, "city": "Milton Keynes", "pop_total": 121938.427953103, "mass_total": 41349454.8252542, "log_pop": 5.086141, "log_mass": 7.61647, "log_pop_c": -0.01968, "log_mass_c": 0.020372, "lat": 52.035202597221, "lon": -0.768073062629427}, {"country_iso": "GBR", "city_id": 1889, "city": "Aylesbury", "pop_total": 50919.1720110464, "mass_total": 12795220.5430916, "log_pop": 4.706881, "log_mass": 7.107048, "log_pop_c": -0.398939, "log_mass_c": -0.48905, "lat": 51.8138710009744, "lon": -0.810246797452778}, {"country_iso": "GBR", "city_id": 1891, "city": "Blackwater", "pop_total": 143133.604187333, "mass_total": 41927865.1266426, "log_pop": 5.155742, "log_mass": 7.622503, "log_pop_c": 0.049921, "log_mass_c": 0.026405, "lat": 51.2919080005689, "lon": -0.762721875669224}, {"country_iso": "GBR", "city_id": 1892, "city": "High Wycombe", "pop_total": 68479.1856880908, "mass_total": 17052820.3429885, "log_pop": 4.835559, "log_mass": 7.231796, "log_pop_c": -0.270262, "log_mass_c": -0.364302, "lat": 51.6308007513434, "lon": -0.732828932599268}, {"country_iso": "GBR", "city_id": 1905, "city": "Scunthorpe", "pop_total": 61521.8160086708, "mass_total": 37265497.0520844, "log_pop": 4.789029, "log_mass": 7.571307, "log_pop_c": -0.316791, "log_mass_c": -0.024791, "lat": 53.5828266862306, "lon": -0.6446157709585}, {"country_iso": "GBR", "city_id": 1906, "city": "Slough", "pop_total": 117171.381493696, "mass_total": 26348868.002317, "log_pop": 5.068822, "log_mass": 7.420762, "log_pop_c": -0.036999, "log_mass_c": -0.175336, "lat": 51.5155899414499, "lon": -0.597499929221121}, {"country_iso": "GBR", "city_id": 1912, "city": "London", "pop_total": 7636522.27104069, "mass_total": 1583703382.17104, "log_pop": 6.882896, "log_mass": 9.199674, "log_pop_c": 1.777075, "log_mass_c": 1.603576, "lat": 51.4938312933133, "lon": -0.129910925428838}, {"country_iso": "GBR", "city_id": 1915, "city": "Lincoln", "pop_total": 82051.5568949946, "mass_total": 26382460.0172213, "log_pop": 4.914087, "log_mass": 7.421315, "log_pop_c": -0.191734, "log_mass_c": -0.174783, "lat": 53.2154282637976, "lon": -0.561189143120447}, {"country_iso": "GBR", "city_id": 1920, "city": "Luton", "pop_total": 201640.21573186, "mass_total": 45252535.0186443, "log_pop": 5.304577, "log_mass": 7.655643, "log_pop_c": 0.198757, "log_mass_c": 0.059545, "lat": 51.8967744137195, "lon": -0.454396179219461}, {"country_iso": "GBR", "city_id": 1923, "city": "Bedford", "pop_total": 78980.2514943655, "mass_total": 21366591.3053387, "log_pop": 4.897519, "log_mass": 7.329735, "log_pop_c": -0.208302, "log_mass_c": -0.266363, "lat": 52.1357935142667, "lon": -0.459771001072694}, {"country_iso": "GBR", "city_id": 1924, "city": "Hemel Hempstead", "pop_total": 57007.2036381154, "mass_total": 14409933.1270284, "log_pop": 4.75593, "log_mass": 7.158662, "log_pop_c": -0.349891, "log_mass_c": -0.437436, "lat": 51.7582228953224, "lon": -0.463948345460362}, {"country_iso": "GBR", "city_id": 1929, "city": "Brighton", "pop_total": 336602.103915065, "mass_total": 72137762.8617858, "log_pop": 5.527117, "log_mass": 7.858163, "log_pop_c": 0.421296, "log_mass_c": 0.262065, "lat": 50.8316496000336, "lon": -0.254058471039952}, {"country_iso": "GBR", "city_id": 1930, "city": "Hull", "pop_total": 240002.814988994, "mass_total": 82724254.5379647, "log_pop": 5.380216, "log_mass": 7.917633, "log_pop_c": 0.274396, "log_mass_c": 0.321535, "lat": 53.7584827562342, "lon": -0.352645317180364}, {"country_iso": "GBR", "city_id": 1936, "city": "St Albans", "pop_total": 54033.6798490039, "mass_total": 13374854.9938134, "log_pop": 4.732665, "log_mass": 7.126289, "log_pop_c": -0.373156, "log_mass_c": -0.469809, "lat": 51.7447755792658, "lon": -0.324322899066956}, {"country_iso": "GBR", "city_id": 1939, "city": "Peterborough", "pop_total": 118755.621421841, "mass_total": 39793199.5415553, "log_pop": 5.074654, "log_mass": 7.599809, "log_pop_c": -0.031166, "log_mass_c": 0.003711, "lat": 52.5727509019499, "lon": -0.259030987772931}, {"country_iso": "GBR", "city_id": 1945, "city": "Crawley", "pop_total": 91768.0198584252, "mass_total": 29028802.1507033, "log_pop": 4.962691, "log_mass": 7.462829, "log_pop_c": -0.143129, "log_mass_c": -0.133269, "lat": 51.1301139039737, "lon": -0.18078664592069}, {"country_iso": "GBR", "city_id": 1946, "city": "Stevenage", "pop_total": 63802.9741702974, "mass_total": 17646696.7113196, "log_pop": 4.804841, "log_mass": 7.246663, "log_pop_c": -0.30098, "log_mass_c": -0.349435, "lat": 51.9048336609237, "lon": -0.184929783413176}, {"country_iso": "GBR", "city_id": 1951, "city": "Grimsby", "pop_total": 98320.2230407917, "mass_total": 32150354.0113268, "log_pop": 4.992643, "log_mass": 7.507186, "log_pop_c": -0.113178, "log_mass_c": -0.088912, "lat": 53.5572489148161, "lon": -0.0821474508096391}, {"country_iso": "GBR", "city_id": 1960, "city": "Harlow", "pop_total": 54566.4948264251, "mass_total": 16035558.7219086, "log_pop": 4.736926, "log_mass": 7.205084, "log_pop_c": -0.368894, "log_mass_c": -0.391014, "lat": 51.7683592983069, "lon": 0.10745796940476}, {"country_iso": "GBR", "city_id": 1965, "city": "Cambridge", "pop_total": 97780.3493940741, "mass_total": 25100404.7235886, "log_pop": 4.990252, "log_mass": 7.399681, "log_pop_c": -0.115569, "log_mass_c": -0.196417, "lat": 52.2089603081216, "lon": 0.138613630305178}, {"country_iso": "GBR", "city_id": 1973, "city": "Eastbourne", "pop_total": 85575.5011353946, "mass_total": 20413346.0504911, "log_pop": 4.932349, "log_mass": 7.309914, "log_pop_c": -0.173471, "log_mass_c": -0.286184, "lat": 50.7903633682201, "lon": 0.283135976135816}, {"country_iso": "GBR", "city_id": 1978, "city": "Basildon", "pop_total": 76238.934064351, "mass_total": 22515214.4712433, "log_pop": 4.882177, "log_mass": 7.352476, "log_pop_c": -0.223644, "log_mass_c": -0.243622, "lat": 51.5742726216795, "lon": 0.466676297538153}, {"country_iso": "GBR", "city_id": 1979, "city": "Chelmsford", "pop_total": 75874.3006931182, "mass_total": 21942934.8942054, "log_pop": 4.880095, "log_mass": 7.341295, "log_pop_c": -0.225726, "log_mass_c": -0.254803, "lat": 51.7354762356858, "lon": 0.479558204925097}, {"country_iso": "GBR", "city_id": 1980, "city": "St Leonards", "pop_total": 89144.4788276916, "mass_total": 21395423.1469252, "log_pop": 4.950094, "log_mass": 7.330321, "log_pop_c": -0.155726, "log_mass_c": -0.265777, "lat": 50.8567309782598, "lon": 0.52237565823533}, {"country_iso": "GBR", "city_id": 1981, "city": "Chatham", "pop_total": 182412.78113169, "mass_total": 48357825.9729787, "log_pop": 5.261055, "log_mass": 7.684467, "log_pop_c": 0.155235, "log_mass_c": 0.088369, "lat": 51.3717114671572, "lon": 0.543163267208368}, {"country_iso": "GBR", "city_id": 1983, "city": "Maidstone", "pop_total": 74985.2562961116, "mass_total": 18916484.7911478, "log_pop": 4.874976, "log_mass": 7.27684, "log_pop_c": -0.230845, "log_mass_c": -0.319258, "lat": 51.2679884008937, "lon": 0.528687365106966}, {"country_iso": "GBR", "city_id": 1984, "city": "Southend-on-Sea", "pop_total": 200918.770285223, "mass_total": 52040841.6541342, "log_pop": 5.303021, "log_mass": 7.716344, "log_pop_c": 0.1972, "log_mass_c": 0.120246, "lat": 51.5573277048207, "lon": 0.657091169046011}, {"country_iso": "GBR", "city_id": 1993, "city": "Colchester", "pop_total": 82047.1329724608, "mass_total": 24274159.9275113, "log_pop": 4.914063, "log_mass": 7.385144, "log_pop_c": -0.191757, "log_mass_c": -0.210954, "lat": 51.8868312485199, "lon": 0.89661073919339}, {"country_iso": "GBR", "city_id": 1995, "city": "Ashford", "pop_total": 50337.9246573067, "mass_total": 15017732.8310986, "log_pop": 4.701895, "log_mass": 7.176604, "log_pop_c": -0.403925, "log_mass_c": -0.419494, "lat": 51.1416723778083, "lon": 0.871198768655113}, {"country_iso": "GBR", "city_id": 2003, "city": "Ipswich", "pop_total": 120648.230469066, "mass_total": 35002199.9344846, "log_pop": 5.081521, "log_mass": 7.544095, "log_pop_c": -0.0243, "log_mass_c": -0.052003, "lat": 52.0547778903889, "lon": 1.17071612643315}, {"country_iso": "GBR", "city_id": 2005, "city": "Norwich", "pop_total": 135132.248764826, "mass_total": 40529397.7843507, "log_pop": 5.130759, "log_mass": 7.60777, "log_pop_c": 0.024938, "log_mass_c": 0.011672, "lat": 52.6388864855518, "lon": 1.28740509699617}, {"country_iso": "GBR", "city_id": 2012, "city": "Margate", "pop_total": 87970.4237510405, "mass_total": 23148415.5598437, "log_pop": 4.944337, "log_mass": 7.364521, "log_pop_c": -0.161484, "log_mass_c": -0.231577, "lat": 51.3629654311112, "lon": 1.40316588829499}, {"country_iso": "GBR", "city_id": 2032, "city": "Great Yarmouth", "pop_total": 50270.6920057788, "mass_total": 17105445.2244655, "log_pop": 4.701315, "log_mass": 7.233134, "log_pop_c": -0.404506, "log_mass_c": -0.362964, "lat": 52.5895045581967, "lon": 1.7234484156253}, {"country_iso": "GBR", "city_id": 2033, "city": "Lowestoft", "pop_total": 50175.4012850104, "mass_total": 17326971.136631, "log_pop": 4.700491, "log_mass": 7.238723, "log_pop_c": -0.40533, "log_mass_c": -0.357375, "lat": 52.4721286445132, "lon": 1.72942937320039}]