[{"country_iso": "TUN", "city_id": 2747, "city": "Bizerte", "pop_total": 81024.9661416634, "mass_total": 23097101.5138182, "log_pop": 4.908619, "log_mass": 7.363557, "log_pop_c": -0.280085, "log_mass_c": -0.243051, "lat": 37.2684840944832, "lon": 9.86615762216898}, {"country_iso": "TUN", "city_id": 2767, "city": "Tunis", "pop_total": 1358832.97307347, "mass_total": 250580394.194267, "log_pop": 6.133166, "log_mass": 8.398947, "log_pop_c": 0.944462, "log_mass_c": 0.792338, "lat": 36.8233973066142, "lon": 10.2006165449613}, {"country_iso": "TUN", "city_id": 2790, "city": "Gabes", "pop_total": 69292.7265193126, "mass_total": 23877520.5096356, "log_pop": 4.840688, "log_mass": 7.377989, "log_pop_c": -0.348016, "log_mass_c": -0.22862, "lat": 33.8888641079969, "lon": 10.0941416417838}, {"country_iso": "TUN", "city_id": 2792, "city": "Hammam-Lif", "pop_total": 86163.8282661896, "mass_total": 19985157.3942349, "log_pop": 4.935325, "log_mass": 7.300708, "log_pop_c": -0.253379, "log_mass_c": -0.305901, "lat": 36.7207263137508, "lon": 10.3483052726174}, {"country_iso": "TUN", "city_id": 2815, "city": "Hammamet", "pop_total": 88211.4606232438, "mass_total": 26471644.9630986, "log_pop": 4.945525, "log_mass": 7.422781, "log_pop_c": -0.243179, "log_mass_c": -0.183828, "lat": 36.4328787262308, "lon": 10.6896416125351}, {"country_iso": "TUN", "city_id": 2816, "city": "Sousse", "pop_total": 243530.321222631, "mass_total": 55269489.5346262, "log_pop": 5.386553, "log_mass": 7.742485, "log_pop_c": 0.197849, "log_mass_c": 0.135877, "lat": 35.8374627489557, "lon": 10.5961759098912}, {"country_iso": "TUN", "city_id": 2837, "city": "Sfax", "pop_total": 365749.472475717, "mass_total": 102519052.903601, "log_pop": 5.563184, "log_mass": 8.010805, "log_pop_c": 0.37448, "log_mass_c": 0.404196, "lat": 34.7650264839363, "lon": 10.7434634199419}, {"country_iso": "TUN", "city_id": 2848, "city": "Ksar Hellal", "pop_total": 62599.3187176087, "mass_total": 17202804.8737518, "log_pop": 4.79657, "log_mass": 7.235599, "log_pop_c": -0.392134, "log_mass_c": -0.37101, "lat": 35.6489880437934, "lon": 10.891162068989}]