[{"country_iso": "PHL", "city_id": 12772, "city": "Dagupan", "pop_total": 143549.409650621, "mass_total": 17968040.6378199, "log_pop": 5.157001, "log_mass": 7.254501, "log_pop_c": -0.010419, "log_mass_c": 0.064812, "lat": 16.0456325600687, "lon": 120.391648498317}, {"country_iso": "PHL", "city_id": 12783, "city": "Baguio", "pop_total": 127243.262571529, "mass_total": 20008857.6236696, "log_pop": 5.104635, "log_mass": 7.301222, "log_pop_c": -0.062785, "log_mass_c": 0.111534, "lat": 16.4248653418501, "lon": 120.59524449036}, {"country_iso": "PHL", "city_id": 12796, "city": "Olongapo", "pop_total": 75879.2898069765, "mass_total": 8914470.11116391, "log_pop": 4.880123, "log_mass": 6.950096, "log_pop_c": -0.287297, "log_mass_c": -0.239593, "lat": 14.8411580110916, "lon": 120.294399236177}, {"country_iso": "PHL", "city_id": 12799, "city": "Tarlac City", "pop_total": 54147.3410175909, "mass_total": 10922203.1988791, "log_pop": 4.733577, "log_mass": 7.03831, "log_pop_c": -0.433843, "log_mass_c": -0.151378, "lat": 15.4817278539061, "lon": 120.603632282224}, {"country_iso": "PHL", "city_id": 12803, "city": "Angeles [San Fernando]", "pop_total": 217355.638689085, "mass_total": 57176500.8816424, "log_pop": 5.337171, "log_mass": 7.757218, "log_pop_c": 0.169751, "log_mass_c": 0.567529, "lat": 15.1369119728668, "lon": 120.643547602855}, {"country_iso": "PHL", "city_id": 12820, "city": "Cabanatuan", "pop_total": 96163.0110346046, "mass_total": 10128431.1815607, "log_pop": 4.983008, "log_mass": 7.005542, "log_pop_c": -0.184412, "log_mass_c": -0.184146, "lat": 15.467847805379, "lon": 120.959481637739}, {"country_iso": "PHL", "city_id": 12829, "city": "Quezon City [Manila]", "pop_total": 13708138.8136582, "mass_total": 1013996164.31551, "log_pop": 7.136978, "log_mass": 9.006036, "log_pop_c": 1.969558, "log_mass_c": 1.816348, "lat": 14.5519794224907, "lon": 121.019811178264}, {"country_iso": "PHL", "city_id": 12847, "city": "Binangonan", "pop_total": 73274.5831570102, "mass_total": 5612352.81712623, "log_pop": 4.864953, "log_mass": 6.749145, "log_pop_c": -0.302467, "log_mass_c": -0.440544, "lat": 14.4850342058723, "lon": 121.201323513901}, {"country_iso": "PHL", "city_id": 12849, "city": "Batangas City", "pop_total": 130203.474728792, "mass_total": 19018966.4297101, "log_pop": 5.114623, "log_mass": 7.279187, "log_pop_c": -0.052797, "log_mass_c": 0.089498, "lat": 13.7679785853758, "lon": 121.032746305045}, {"country_iso": "PHL", "city_id": 12854, "city": "Lipa", "pop_total": 55966.7444383004, "mass_total": 7291844.73224686, "log_pop": 4.74793, "log_mass": 6.862837, "log_pop_c": -0.41949, "log_mass_c": -0.326851, "lat": 13.9440974716202, "lon": 121.139248980235}, {"country_iso": "PHL", "city_id": 12860, "city": "San Pablo", "pop_total": 52620.1429290024, "mass_total": 5901261.01702851, "log_pop": 4.721152, "log_mass": 6.770945, "log_pop_c": -0.446268, "log_mass_c": -0.418744, "lat": 14.0765335529424, "lon": 121.324256453597}, {"country_iso": "PHL", "city_id": 12883, "city": "Lucena", "pop_total": 86859.6262387238, "mass_total": 8186807.38661981, "log_pop": 4.938818, "log_mass": 6.913115, "log_pop_c": -0.228602, "log_mass_c": -0.276574, "lat": 13.9360731064487, "lon": 121.612404989465}, {"country_iso": "PHL", "city_id": 12917, "city": "Jolo", "pop_total": 58440.0480214175, "mass_total": 2525330.35212563, "log_pop": 4.766711, "log_mass": 6.402318, "log_pop_c": -0.400709, "log_mass_c": -0.78737, "lat": 6.05254950548494, "lon": 121.004091154345}, {"country_iso": "PHL", "city_id": 12929, "city": "Naga", "pop_total": 95007.1722899568, "mass_total": 9042491.48570727, "log_pop": 4.977756, "log_mass": 6.956288, "log_pop_c": -0.189664, "log_mass_c": -0.2334, "lat": 13.6275685291397, "lon": 123.190710553053}, {"country_iso": "PHL", "city_id": 12932, "city": "Iloilo City", "pop_total": 272472.199966722, "mass_total": 26559932.0448111, "log_pop": 5.435322, "log_mass": 7.424227, "log_pop_c": 0.267902, "log_mass_c": 0.234538, "lat": 10.7130394314243, "lon": 122.540583164397}, {"country_iso": "PHL", "city_id": 12948, "city": "Zamboanga City", "pop_total": 214388.986225635, "mass_total": 20065170.0983694, "log_pop": 5.331202, "log_mass": 7.302443, "log_pop_c": 0.163782, "log_mass_c": 0.112754, "lat": 6.92682747302259, "lon": 122.079675382728}, {"country_iso": "PHL", "city_id": 12951, "city": "Bacolod", "pop_total": 244472.734658707, "mass_total": 28157318.7784779, "log_pop": 5.38823, "log_mass": 7.449591, "log_pop_c": 0.22081, "log_mass_c": 0.259903, "lat": 10.6616775787314, "lon": 122.957473179618}, {"country_iso": "PHL", "city_id": 12955, "city": "Legazpi", "pop_total": 59568.9597015381, "mass_total": 7362647.90253156, "log_pop": 4.77502, "log_mass": 6.867034, "log_pop_c": -0.3924, "log_mass_c": -0.322654, "lat": 13.1494215181983, "lon": 123.732856353906}, {"country_iso": "PHL", "city_id": 12975, "city": "Dumaguete", "pop_total": 59513.494943472, "mass_total": 6490418.77715088, "log_pop": 4.774615, "log_mass": 6.812273, "log_pop_c": -0.392805, "log_mass_c": -0.377416, "lat": 9.31052518878938, "lon": 123.289623339046}, {"country_iso": "PHL", "city_id": 12981, "city": "Cebu City", "pop_total": 1380454.58408065, "mass_total": 127011794.860915, "log_pop": 6.140022, "log_mass": 8.103844, "log_pop_c": 0.972602, "log_mass_c": 0.914156, "lat": 10.3073990651737, "lon": 123.897939945547}, {"country_iso": "PHL", "city_id": 12985, "city": "Pagadian", "pop_total": 67884.5131022105, "mass_total": 4257245.57649043, "log_pop": 4.831771, "log_mass": 6.629129, "log_pop_c": -0.335649, "log_mass_c": -0.56056, "lat": 7.82137231223097, "lon": 123.429810767512}, {"country_iso": "PHL", "city_id": 12998, "city": "Iligan", "pop_total": 115762.847374479, "mass_total": 13009156.3439844, "log_pop": 5.063569, "log_mass": 7.114249, "log_pop_c": -0.103851, "log_mass_c": -0.075439, "lat": 8.23290497331087, "lon": 124.234635207092}, {"country_iso": "PHL", "city_id": 12999, "city": "Tacloban", "pop_total": 94624.7306377546, "mass_total": 10163771.876992, "log_pop": 4.976005, "log_mass": 7.007055, "log_pop_c": -0.191415, "log_mass_c": -0.182634, "lat": 11.2062891395785, "lon": 125.002561040327}, {"country_iso": "PHL", "city_id": 13003, "city": "Cotabato", "pop_total": 160834.575891679, "mass_total": 7711671.18346598, "log_pop": 5.206379, "log_mass": 6.887149, "log_pop_c": 0.038959, "log_mass_c": -0.30254, "lat": 7.20749905212985, "lon": 124.236604066293}, {"country_iso": "PHL", "city_id": 13005, "city": "Cagayan de Oro", "pop_total": 355856.503425295, "mass_total": 32187927.4302601, "log_pop": 5.551275, "log_mass": 7.507693, "log_pop_c": 0.383855, "log_mass_c": 0.318004, "lat": 8.49674316802967, "lon": 124.666693321495}, {"country_iso": "PHL", "city_id": 13016, "city": "General Santos", "pop_total": 187298.882692051, "mass_total": 22253166.6641504, "log_pop": 5.272535, "log_mass": 7.347392, "log_pop_c": 0.105115, "log_mass_c": 0.157703, "lat": 6.1012718887783, "lon": 125.152824815595}, {"country_iso": "PHL", "city_id": 13022, "city": "Toril", "pop_total": 120609.838872379, "mass_total": 15527149.8338491, "log_pop": 5.081383, "log_mass": 7.191092, "log_pop_c": -0.086037, "log_mass_c": 0.001403, "lat": 7.05250664599598, "lon": 125.525945739453}, {"country_iso": "PHL", "city_id": 13024, "city": "Davao City", "pop_total": 473021.788160933, "mass_total": 46726719.6805065, "log_pop": 5.674881, "log_mass": 7.669565, "log_pop_c": 0.507461, "log_mass_c": 0.479877, "lat": 7.12939865765806, "lon": 125.63074640276}, {"country_iso": "PHL", "city_id": 13027, "city": "Tagum", "pop_total": 77362.9803865096, "mass_total": 8739208.74309682, "log_pop": 4.888533, "log_mass": 6.941472, "log_pop_c": -0.278887, "log_mass_c": -0.248216, "lat": 7.45429689181418, "lon": 125.807082040672}]