[{"country_iso": "PAN", "city_id": 451, "city": "Col\u00f3n", "pop_total": 61293.5426272392, "mass_total": 13770743.8037702, "log_pop": 4.787415, "log_mass": 7.138957, "log_pop_c": -0.190382, "log_mass_c": -0.134083, "lat": 9.35315568823625, "lon": -79.8602059523037}, {"country_iso": "PAN", "city_id": 452, "city": "La Chorrera", "pop_total": 53823.4304025585, "mass_total": 11074709.4812183, "log_pop": 4.730971, "log_mass": 7.044332, "log_pop_c": -0.246825, "log_mass_c": -0.228708, "lat": 8.86829508884427, "lon": -79.7872343072101}, {"country_iso": "PAN", "city_id": 454, "city": "Nuevo Arraij\u00e1n", "pop_total": 66923.881455571, "mass_total": 12914086.7638141, "log_pop": 4.825581, "log_mass": 7.111064, "log_pop_c": -0.152215, "log_mass_c": -0.161976, "lat": 8.93556201927687, "lon": -79.6911400068939}, {"country_iso": "PAN", "city_id": 458, "city": "Panama City", "pop_total": 643583.944236709, "mass_total": 105624965.420329, "log_pop": 5.808605, "log_mass": 8.023767, "log_pop_c": 0.830809, "log_mass_c": 0.750726, "lat": 9.05519669308463, "lon": -79.4921040650292}, {"country_iso": "PAN", "city_id": 460, "city": "Sector 3", "pop_total": 54501.5972089562, "mass_total": 11145011.2382147, "log_pop": 4.736409, "log_mass": 7.047081, "log_pop_c": -0.241387, "log_mass_c": -0.22596, "lat": 9.09840885070045, "lon": -79.3353852046045}]