[{"country_iso": "AUT", "city_id": 2788, "city": "Innsbruck", "pop_total": 57512.1570836245, "mass_total": 26787324.7811679, "log_pop": 4.75976, "log_mass": 7.427929, "log_pop_c": -0.454763, "log_mass_c": -0.443577, "lat": 47.2681789294289, "lon": 11.4033672972308}, {"country_iso": "AUT", "city_id": 2885, "city": "Salzburg", "pop_total": 71944.4517588283, "mass_total": 34194143.3230028, "log_pop": 4.856997, "log_mass": 7.533952, "log_pop_c": -0.357526, "log_mass_c": -0.337554, "lat": 47.8030410557421, "lon": 13.0366407552394}, {"country_iso": "AUT", "city_id": 2936, "city": "Linz", "pop_total": 131913.152295923, "mass_total": 77796176.057835, "log_pop": 5.120288, "log_mass": 7.890958, "log_pop_c": -0.094235, "log_mass_c": 0.019452, "lat": 48.2793326595561, "lon": 14.2930258981764}, {"country_iso": "AUT", "city_id": 3000, "city": "Graz", "pop_total": 161449.78662842, "mass_total": 74056974.6099096, "log_pop": 5.208037, "log_mass": 7.869566, "log_pop_c": -0.006485, "log_mass_c": -0.00194, "lat": 47.0585338679967, "lon": 15.4358589892303}, {"country_iso": "AUT", "city_id": 3027, "city": "Vienna", "pop_total": 1341317.24560706, "mass_total": 431643660.816313, "log_pop": 6.127532, "log_mass": 8.635125, "log_pop_c": 0.913009, "log_mass_c": 0.763619, "lat": 48.198447520443, "lon": 16.3839782633104}]