[{"country_iso": "MAR", "city_id": 1544, "city": "Agadir", "pop_total": 564697.018934403, "mass_total": 73049569.5401111, "log_pop": 5.751815, "log_mass": 7.863618, "log_pop_c": 0.522494, "log_mass_c": 0.609723, "lat": 30.3856938950581, "lon": -9.54145883791098}, {"country_iso": "MAR", "city_id": 1547, "city": "Safi", "pop_total": 161587.732460833, "mass_total": 17211915.5497691, "log_pop": 5.208408, "log_mass": 7.235829, "log_pop_c": -0.020913, "log_mass_c": -0.018066, "lat": 32.2830182402168, "lon": -9.23715314469694}, {"country_iso": "MAR", "city_id": 1558, "city": "El Jadida", "pop_total": 126467.403631992, "mass_total": 16302275.3492748, "log_pop": 5.101979, "log_mass": 7.212248, "log_pop_c": -0.127343, "log_mass_c": -0.041647, "lat": 33.2365642534749, "lon": -8.51058996852214}, {"country_iso": "MAR", "city_id": 1570, "city": "Marrakesh", "pop_total": 625662.577798103, "mass_total": 44000291.7849423, "log_pop": 5.79634, "log_mass": 7.643456, "log_pop_c": 0.567019, "log_mass_c": 0.389561, "lat": 31.639535455138, "lon": -7.9877492722741}, {"country_iso": "MAR", "city_id": 1575, "city": "Casablanca", "pop_total": 2523210.68249053, "mass_total": 223710899.190297, "log_pop": 6.401954, "log_mass": 8.349687, "log_pop_c": 1.172632, "log_mass_c": 1.095792, "lat": 33.5861572036143, "lon": -7.54860457417603}, {"country_iso": "MAR", "city_id": 1577, "city": "Settat", "pop_total": 70839.109007669, "mass_total": 8812641.12864679, "log_pop": 4.850273, "log_mass": 6.945106, "log_pop_c": -0.379048, "log_mass_c": -0.308789, "lat": 32.9984514226879, "lon": -7.61722867012854}, {"country_iso": "MAR", "city_id": 1579, "city": "Berrechid", "pop_total": 79449.2557014662, "mass_total": 7102292.43004564, "log_pop": 4.90009, "log_mass": 6.851399, "log_pop_c": -0.329232, "log_mass_c": -0.402496, "lat": 33.2587859757167, "lon": -7.58219727360854}, {"country_iso": "MAR", "city_id": 1594, "city": "Khouribga", "pop_total": 112445.377827668, "mass_total": 10964901.8337051, "log_pop": 5.050942, "log_mass": 7.040005, "log_pop_c": -0.17838, "log_mass_c": -0.21389, "lat": 32.8834353616311, "lon": -6.9151200640425}, {"country_iso": "MAR", "city_id": 1595, "city": "Rabat", "pop_total": 1070125.98842632, "mass_total": 96137344.4153744, "log_pop": 6.029435, "log_mass": 7.982892, "log_pop_c": 0.800113, "log_mass_c": 0.728997, "lat": 33.9972716862248, "lon": -6.82780322552611}, {"country_iso": "MAR", "city_id": 1600, "city": "Fkih Ben Salah", "pop_total": 63398.093791612, "mass_total": 6487315.3409618, "log_pop": 4.802076, "log_mass": 6.812065, "log_pop_c": -0.427245, "log_mass_c": -0.44183, "lat": 32.5019669505084, "lon": -6.68731288276713}, {"country_iso": "MAR", "city_id": 1604, "city": "Kenitra", "pop_total": 204589.524877057, "mass_total": 29632883.7253718, "log_pop": 5.310883, "log_mass": 7.471774, "log_pop_c": 0.081562, "log_mass_c": 0.217879, "lat": 34.2575113222787, "lon": -6.57595913070207}, {"country_iso": "MAR", "city_id": 1608, "city": "Beni Mellal", "pop_total": 79993.223756577, "mass_total": 9323336.59810217, "log_pop": 4.903053, "log_mass": 6.969571, "log_pop_c": -0.326268, "log_mass_c": -0.284323, "lat": 32.3323769536594, "lon": -6.36350247215268}, {"country_iso": "MAR", "city_id": 1623, "city": "Khemisset", "pop_total": 68804.5122499045, "mass_total": 5101286.0854863, "log_pop": 4.837617, "log_mass": 6.70768, "log_pop_c": -0.391705, "log_mass_c": -0.546215, "lat": 33.8234397598033, "lon": -6.0751880560961}, {"country_iso": "MAR", "city_id": 1631, "city": "Sidi Slimane", "pop_total": 51942.435890022, "mass_total": 4789276.33998591, "log_pop": 4.715522, "log_mass": 6.68027, "log_pop_c": -0.513799, "log_mass_c": -0.573625, "lat": 34.255896797262, "lon": -5.93611435277433}, {"country_iso": "MAR", "city_id": 1634, "city": "Ksar el-Kebir", "pop_total": 61676.8563130304, "mass_total": 4644417.8196353, "log_pop": 4.790122, "log_mass": 6.666931, "log_pop_c": -0.439199, "log_mass_c": -0.586964, "lat": 35.0030026156649, "lon": -5.90618894122939}, {"country_iso": "MAR", "city_id": 1635, "city": "Tangier", "pop_total": 579146.956360662, "mass_total": 49893459.8263158, "log_pop": 5.762789, "log_mass": 7.698044, "log_pop_c": 0.533467, "log_mass_c": 0.444149, "lat": 35.7500025819622, "lon": -5.82518587454538}, {"country_iso": "MAR", "city_id": 1643, "city": "Meknes", "pop_total": 288006.521198937, "mass_total": 30992162.8774426, "log_pop": 5.459402, "log_mass": 7.491252, "log_pop_c": 0.230081, "log_mass_c": 0.237357, "lat": 33.878340393785, "lon": -5.5401260819672}, {"country_iso": "MAR", "city_id": 1652, "city": "T\u00e9touan", "pop_total": 183578.76558265, "mass_total": 17347591.2085863, "log_pop": 5.263822, "log_mass": 7.239239, "log_pop_c": 0.034501, "log_mass_c": -0.014656, "lat": 35.5715010184236, "lon": -5.35665827641434}, {"country_iso": "MAR", "city_id": 1664, "city": "Fez", "pop_total": 577572.57627109, "mass_total": 49381150.1436632, "log_pop": 5.761607, "log_mass": 7.693561, "log_pop_c": 0.532285, "log_mass_c": 0.439666, "lat": 34.0198629726063, "lon": -5.00868393633181}, {"country_iso": "MAR", "city_id": 1690, "city": "Taza", "pop_total": 68802.6748783897, "mass_total": 8920672.18904639, "log_pop": 4.837605, "log_mass": 6.950398, "log_pop_c": -0.391716, "log_mass_c": -0.303497, "lat": 34.2236714602607, "lon": -4.00748900014573}, {"country_iso": "MAR", "city_id": 1733, "city": "Nador", "pop_total": 121003.328606175, "mass_total": 21151511.2203295, "log_pop": 5.082797, "log_mass": 7.325341, "log_pop_c": -0.146524, "log_mass_c": 0.071447, "lat": 35.162745660373, "lon": -2.9481550267838}, {"country_iso": "MAR", "city_id": 1734, "city": "Melilla", "pop_total": 88052.1184861576, "mass_total": 15377164.6580944, "log_pop": 4.94474, "log_mass": 7.186876, "log_pop_c": -0.284582, "log_mass_c": -0.067019, "lat": 35.2797408053901, "lon": -2.94559270271821}, {"country_iso": "MAR", "city_id": 1735, "city": "Taourirt", "pop_total": 54173.5065907011, "mass_total": 5781612.40592905, "log_pop": 4.733787, "log_mass": 6.762049, "log_pop_c": -0.495534, "log_mass_c": -0.491846, "lat": 34.4066287246654, "lon": -2.89642817343306}, {"country_iso": "MAR", "city_id": 1765, "city": "Berkane", "pop_total": 76893.3396490611, "mass_total": 8554957.78894245, "log_pop": 4.885889, "log_mass": 6.932218, "log_pop_c": -0.343433, "log_mass_c": -0.321677, "lat": 34.9226104032054, "lon": -2.33040824313068}, {"country_iso": "MAR", "city_id": 1787, "city": "Oujda", "pop_total": 354885.326490543, "mass_total": 43237689.907666, "log_pop": 5.550088, "log_mass": 7.635862, "log_pop_c": 0.320767, "log_mass_c": 0.381968, "lat": 34.6817697230088, "lon": -1.90796540184522}]