[{"country_iso": "EGY", "city_id": 3601, "city": "Marsa Matruh\u200e", "pop_total": 73444.4146621442, "mass_total": 14712719.5535507, "log_pop": 4.865959, "log_mass": 7.167693, "log_pop_c": -0.323492, "log_mass_c": -0.03042, "lat": 31.3497593073287, "lon": 27.2394958031305}, {"country_iso": "EGY", "city_id": 3751, "city": "Alexandria", "pop_total": 3688709.92001296, "mass_total": 247655039.42288, "log_pop": 6.566875, "log_mass": 8.393847, "log_pop_c": 1.377424, "log_mass_c": 1.195734, "lat": 31.1495079961369, "lon": 29.9424453736949}, {"country_iso": "EGY", "city_id": 3789, "city": "Idku", "pop_total": 61169.4994430318, "mass_total": 6052495.0735875, "log_pop": 4.786535, "log_mass": 6.781934, "log_pop_c": -0.402915, "log_mass_c": -0.416178, "lat": 31.3080679022652, "lon": 30.2965204268725}, {"country_iso": "EGY", "city_id": 3804, "city": "Damanhur", "pop_total": 251376.600453564, "mass_total": 16147279.0909289, "log_pop": 5.400325, "log_mass": 7.208099, "log_pop_c": 0.210874, "log_mass_c": 0.009987, "lat": 31.040014692821, "lon": 30.463617688688}, {"country_iso": "EGY", "city_id": 3807, "city": "Fuwah", "pop_total": 59538.4099515167, "mass_total": 5558839.37889755, "log_pop": 4.774797, "log_mass": 6.744984, "log_pop_c": -0.414653, "log_mass_c": -0.453129, "lat": 31.1871700565085, "lon": 30.5415723884006}, {"country_iso": "EGY", "city_id": 3817, "city": "Desouk", "pop_total": 112429.66458522, "mass_total": 8560426.64262347, "log_pop": 5.050881, "log_mass": 6.932495, "log_pop_c": -0.138569, "log_mass_c": -0.265617, "lat": 31.1372062272141, "lon": 30.6429931512884}, {"country_iso": "EGY", "city_id": 3840, "city": "Kafr Al-Zaiyat", "pop_total": 92476.9757617913, "mass_total": 11466772.3428789, "log_pop": 4.966034, "log_mass": 7.059441, "log_pop_c": -0.223417, "log_mass_c": -0.138672, "lat": 30.8194195953046, "lon": 30.7957332676189}, {"country_iso": "EGY", "city_id": 3850, "city": "Kafr Al-Sheikh", "pop_total": 132959.561957127, "mass_total": 11984126.1202255, "log_pop": 5.12372, "log_mass": 7.078606, "log_pop_c": -0.065731, "log_mass_c": -0.119506, "lat": 31.0830434067025, "lon": 30.9374949961755}, {"country_iso": "EGY", "city_id": 3861, "city": "Tala", "pop_total": 50935.7145841673, "mass_total": 7940234.99361324, "log_pop": 4.707022, "log_mass": 6.899833, "log_pop_c": -0.482428, "log_mass_c": -0.298279, "lat": 30.6334022900963, "lon": 30.9152765146288}, {"country_iso": "EGY", "city_id": 3862, "city": "Faiyum", "pop_total": 422228.285857771, "mass_total": 40603426.3590086, "log_pop": 5.625547, "log_mass": 7.608563, "log_pop_c": 0.436097, "log_mass_c": 0.41045, "lat": 29.3931219584593, "lon": 30.7875547681659}, {"country_iso": "EGY", "city_id": 3867, "city": "Manuf", "pop_total": 71614.5661065083, "mass_total": 7310911.24221094, "log_pop": 4.855001, "log_mass": 6.863972, "log_pop_c": -0.334449, "log_mass_c": -0.334141, "lat": 30.4650533356641, "lon": 30.9290507933529}, {"country_iso": "EGY", "city_id": 3869, "city": "Tanta", "pop_total": 456465.576184699, "mass_total": 32380739.308513, "log_pop": 5.659408, "log_mass": 7.510287, "log_pop_c": 0.469958, "log_mass_c": 0.312174, "lat": 30.7876487032551, "lon": 31.0074959128006}, {"country_iso": "EGY", "city_id": 3877, "city": "Shibin Al-Kom", "pop_total": 178682.498058244, "mass_total": 16685302.675272, "log_pop": 5.252082, "log_mass": 7.222334, "log_pop_c": 0.062632, "log_mass_c": 0.024221, "lat": 30.5711119622317, "lon": 31.0219169315811}, {"country_iso": "EGY", "city_id": 3881, "city": "6th of October", "pop_total": 114996.502111437, "mass_total": 36111524.0427415, "log_pop": 5.060685, "log_mass": 7.557646, "log_pop_c": -0.128766, "log_mass_c": 0.359533, "lat": 29.941992895552, "lon": 30.9117132114658}, {"country_iso": "EGY", "city_id": 3889, "city": "El Mahalla El Kubra", "pop_total": 518776.052472358, "mass_total": 29920703.9778595, "log_pop": 5.71498, "log_mass": 7.475972, "log_pop_c": 0.52553, "log_mass_c": 0.277859, "lat": 30.9656854400795, "lon": 31.1890271281112}, {"country_iso": "EGY", "city_id": 3902, "city": "Cairo", "pop_total": 13357053.2861505, "mass_total": 802328760.925756, "log_pop": 7.125711, "log_mass": 8.904352, "log_pop_c": 1.93626, "log_mass_c": 1.70624, "lat": 30.0593864893475, "lon": 31.2608156950756}, {"country_iso": "EGY", "city_id": 3905, "city": "Samalut", "pop_total": 63959.2478632908, "mass_total": 6644015.48761265, "log_pop": 4.805903, "log_mass": 6.822431, "log_pop_c": -0.383547, "log_mass_c": -0.375682, "lat": 28.3159081126552, "lon": 30.721977810343}, {"country_iso": "EGY", "city_id": 3908, "city": "Quwaysina", "pop_total": 76969.2439557132, "mass_total": 10876382.1812871, "log_pop": 4.886317, "log_mass": 7.036484, "log_pop_c": -0.303133, "log_mass_c": -0.161628, "lat": 30.5382415059695, "lon": 31.1566157400388}, {"country_iso": "EGY", "city_id": 3913, "city": "Banha", "pop_total": 220856.554342158, "mass_total": 22693024.6918245, "log_pop": 5.34411, "log_mass": 7.355892, "log_pop_c": 0.15466, "log_mass_c": 0.15778, "lat": 30.4980461211441, "lon": 31.2053802178972}, {"country_iso": "EGY", "city_id": 3915, "city": "Al-Minya", "pop_total": 244129.246368942, "mass_total": 16850611.925568, "log_pop": 5.38762, "log_mass": 7.226616, "log_pop_c": 0.198169, "log_mass_c": 0.028503, "lat": 28.0951025923487, "lon": 30.7537170066673}, {"country_iso": "EGY", "city_id": 3917, "city": "Tukh", "pop_total": 56295.8373419406, "mass_total": 8262542.01079697, "log_pop": 4.750476, "log_mass": 6.917114, "log_pop_c": -0.438974, "log_mass_c": -0.280999, "lat": 30.3750987149619, "lon": 31.1814310057914}, {"country_iso": "EGY", "city_id": 3920, "city": "Mit Ghamr", "pop_total": 199801.062015747, "mass_total": 20041291.7536941, "log_pop": 5.300598, "log_mass": 7.301926, "log_pop_c": 0.111147, "log_mass_c": 0.103813, "lat": 30.7421144836927, "lon": 31.2521271839964}, {"country_iso": "EGY", "city_id": 3922, "city": "Beni Mazar", "pop_total": 58351.9844514996, "mass_total": 5948290.38628787, "log_pop": 4.766056, "log_mass": 6.774392, "log_pop_c": -0.423395, "log_mass_c": -0.423721, "lat": 28.49007101681, "lon": 30.8073254375155}, {"country_iso": "EGY", "city_id": 3927, "city": "Mansoura", "pop_total": 589166.011372813, "mass_total": 47865838.9316926, "log_pop": 5.770238, "log_mass": 7.680026, "log_pop_c": 0.580787, "log_mass_c": 0.481913, "lat": 31.0601379767324, "lon": 31.4374191247775}, {"country_iso": "EGY", "city_id": 3957, "city": "Beni Suef", "pop_total": 193951.095527071, "mass_total": 19104503.6973798, "log_pop": 5.287692, "log_mass": 7.281136, "log_pop_c": 0.098242, "log_mass_c": 0.083023, "lat": 29.073526282614, "lon": 31.0811512395962}, {"country_iso": "EGY", "city_id": 3960, "city": "Minya Al-Qamh", "pop_total": 61461.4058712716, "mass_total": 6430666.85851231, "log_pop": 4.788602, "log_mass": 6.808256, "log_pop_c": -0.400848, "log_mass_c": -0.389857, "lat": 30.5113227699274, "lon": 31.3504134079128}, {"country_iso": "EGY", "city_id": 3961, "city": "Kafr al Dabbusi", "pop_total": 54070.966656453, "mass_total": 6226262.9529957, "log_pop": 4.732964, "log_mass": 6.794227, "log_pop_c": -0.456486, "log_mass_c": -0.403885, "lat": 31.1927083444121, "lon": 31.5265586593869}, {"country_iso": "EGY", "city_id": 3965, "city": "Mallawi", "pop_total": 137044.443014063, "mass_total": 10176974.6013104, "log_pop": 5.136861, "log_mass": 7.007619, "log_pop_c": -0.052589, "log_mass_c": -0.190494, "lat": 27.7253312616692, "lon": 30.8669514316146}, {"country_iso": "EGY", "city_id": 3966, "city": "Dairut", "pop_total": 152391.078108718, "mass_total": 16565576.6556637, "log_pop": 5.18296, "log_mass": 7.219207, "log_pop_c": -0.006491, "log_mass_c": 0.021094, "lat": 27.5149576888379, "lon": 30.8234747846372}, {"country_iso": "EGY", "city_id": 3967, "city": "El Senbellawein City", "pop_total": 65155.123369374, "mass_total": 8088466.06098546, "log_pop": 4.813949, "log_mass": 6.907866, "log_pop_c": -0.375502, "log_mass_c": -0.290247, "lat": 30.9017417465667, "lon": 31.4604885982241}, {"country_iso": "EGY", "city_id": 3968, "city": "Al-Zaqaziq\u200e", "pop_total": 479312.618266195, "mass_total": 29554213.9030646, "log_pop": 5.680619, "log_mass": 7.470619, "log_pop_c": 0.491168, "log_mass_c": 0.272507, "lat": 30.5967067353813, "lon": 31.4947981886217}, {"country_iso": "EGY", "city_id": 3975, "city": "Al-Wasitah", "pop_total": 55202.4044287289, "mass_total": 5311049.3745321, "log_pop": 4.741958, "log_mass": 6.72518, "log_pop_c": -0.447492, "log_mass_c": -0.472932, "lat": 29.3279295625587, "lon": 31.1944206902479}, {"country_iso": "EGY", "city_id": 3984, "city": "Nazlet Rimeih", "pop_total": 82788.5408641666, "mass_total": 9286357.41746125, "log_pop": 4.91797, "log_mass": 6.967845, "log_pop_c": -0.27148, "log_mass_c": -0.230267, "lat": 27.3491371428039, "lon": 30.9561622713046}, {"country_iso": "EGY", "city_id": 3995, "city": "An Nazlah", "pop_total": 145608.179693801, "mass_total": 25643772.1006783, "log_pop": 5.163186, "log_mass": 7.408982, "log_pop_c": -0.026265, "log_mass_c": 0.210869, "lat": 30.6037271525598, "lon": 31.6593714084967}, {"country_iso": "EGY", "city_id": 3996, "city": "Bilbeis", "pop_total": 96130.3672943845, "mass_total": 13555231.8485181, "log_pop": 4.982861, "log_mass": 7.132107, "log_pop_c": -0.20659, "log_mass_c": -0.066006, "lat": 30.4139053645182, "lon": 31.5732468766033}, {"country_iso": "EGY", "city_id": 4000, "city": "Damietta", "pop_total": 278745.019463106, "mass_total": 28077582.8040046, "log_pop": 5.445207, "log_mass": 7.44836, "log_pop_c": 0.255757, "log_mass_c": 0.250247, "lat": 31.4286528653761, "lon": 31.8128428740407}, {"country_iso": "EGY", "city_id": 4003, "city": "Kafr Haggag", "pop_total": 73732.0737108343, "mass_total": 9861130.03737684, "log_pop": 4.867656, "log_mass": 6.993927, "log_pop_c": -0.321794, "log_mass_c": -0.204186, "lat": 31.1768166566292, "lon": 31.8186581602777}, {"country_iso": "EGY", "city_id": 4004, "city": "Abu Kabir\u200e", "pop_total": 50528.0559003045, "mass_total": 5900101.10272814, "log_pop": 4.703533, "log_mass": 6.770859, "log_pop_c": -0.485918, "log_mass_c": -0.427253, "lat": 30.7232339040429, "lon": 31.6621896741355}, {"country_iso": "EGY", "city_id": 4018, "city": "Qism Auwal Faqus", "pop_total": 115662.893562867, "mass_total": 11639110.9249563, "log_pop": 5.063194, "log_mass": 7.06592, "log_pop_c": -0.126256, "log_mass_c": -0.132193, "lat": 30.7269949162042, "lon": 31.7962812421555}, {"country_iso": "EGY", "city_id": 4027, "city": "Asyut", "pop_total": 398271.991945184, "mass_total": 26514389.4463498, "log_pop": 5.60018, "log_mass": 7.423482, "log_pop_c": 0.410729, "log_mass_c": 0.225369, "lat": 27.177397237255, "lon": 31.2032641464513}, {"country_iso": "EGY", "city_id": 4029, "city": "Al-Manzala", "pop_total": 83180.2647947461, "mass_total": 11484380.2050911, "log_pop": 4.92002, "log_mass": 7.060108, "log_pop_c": -0.26943, "log_mass_c": -0.138005, "lat": 31.1688537079042, "lon": 31.9745913046167}, {"country_iso": "EGY", "city_id": 4074, "city": "Port Said", "pop_total": 511792.35619276, "mass_total": 30231580.197044, "log_pop": 5.709094, "log_mass": 7.480461, "log_pop_c": 0.519643, "log_mass_c": 0.282348, "lat": 31.2465109244608, "lon": 32.2952917435482}, {"country_iso": "EGY", "city_id": 4075, "city": "Tima", "pop_total": 69914.7506592358, "mass_total": 9043113.25258997, "log_pop": 4.844569, "log_mass": 6.956318, "log_pop_c": -0.344882, "log_mass_c": -0.241795, "lat": 26.8710144328697, "lon": 31.4683387140235}, {"country_iso": "EGY", "city_id": 4081, "city": "Al Ismailiya", "pop_total": 315278.019305314, "mass_total": 34048157.3488173, "log_pop": 5.498694, "log_mass": 7.532094, "log_pop_c": 0.309243, "log_mass_c": 0.333981, "lat": 30.5846776914295, "lon": 32.2475625956765}, {"country_iso": "EGY", "city_id": 4088, "city": "Tahma", "pop_total": 90123.0468856138, "mass_total": 5774921.1527555, "log_pop": 4.954836, "log_mass": 6.761546, "log_pop_c": -0.234615, "log_mass_c": -0.436567, "lat": 26.7588580942004, "lon": 31.5154398183261}, {"country_iso": "EGY", "city_id": 4104, "city": "Sohag", "pop_total": 353611.400401735, "mass_total": 31414626.2816523, "log_pop": 5.548526, "log_mass": 7.497132, "log_pop_c": 0.359076, "log_mass_c": 0.299019, "lat": 26.5673933604647, "lon": 31.6901605855887}, {"country_iso": "EGY", "city_id": 4133, "city": "Girga", "pop_total": 246335.27382075, "mass_total": 26140755.8023787, "log_pop": 5.391527, "log_mass": 7.417318, "log_pop_c": 0.202076, "log_mass_c": 0.219205, "lat": 26.4039975142943, "lon": 31.8203297414807}, {"country_iso": "EGY", "city_id": 4141, "city": "Suez", "pop_total": 292786.105835752, "mass_total": 31067985.5069191, "log_pop": 5.46655, "log_mass": 7.492313, "log_pop_c": 0.2771, "log_mass_c": 0.2942, "lat": 29.9694159574556, "lon": 32.525922735214}, {"country_iso": "EGY", "city_id": 4159, "city": "Balyana", "pop_total": 77221.8009225097, "mass_total": 11123870.8060472, "log_pop": 4.88774, "log_mass": 7.046256, "log_pop_c": -0.30171, "log_mass_c": -0.151857, "lat": 26.193847624051, "lon": 32.0052025507798}, {"country_iso": "EGY", "city_id": 4190, "city": "Nag Hammadi", "pop_total": 87234.4509870941, "mass_total": 14059262.133566, "log_pop": 4.940688, "log_mass": 7.147963, "log_pop_c": -0.248762, "log_mass_c": -0.05015, "lat": 26.0530657596735, "lon": 32.2236356676631}, {"country_iso": "EGY", "city_id": 4238, "city": "Naj al Madamud", "pop_total": 78356.9995205225, "mass_total": 8764062.91291228, "log_pop": 4.894078, "log_mass": 6.942705, "log_pop_c": -0.295373, "log_mass_c": -0.255407, "lat": 25.6709091822449, "lon": 32.6702621104015}, {"country_iso": "EGY", "city_id": 4241, "city": "Qena", "pop_total": 93977.7022806242, "mass_total": 10537131.6742179, "log_pop": 4.973025, "log_mass": 7.022722, "log_pop_c": -0.216426, "log_mass_c": -0.17539, "lat": 26.1592632137248, "lon": 32.716771054151}, {"country_iso": "EGY", "city_id": 4243, "city": "Luxor", "pop_total": 303646.458427661, "mass_total": 12515437.9847892, "log_pop": 5.482368, "log_mass": 7.097446, "log_pop_c": 0.292918, "log_mass_c": -0.100667, "lat": 25.7103596414214, "lon": 32.6512508647757}, {"country_iso": "EGY", "city_id": 4250, "city": "Qus", "pop_total": 115434.414601059, "mass_total": 19641696.7346733, "log_pop": 5.062335, "log_mass": 7.293179, "log_pop_c": -0.127115, "log_mass_c": 0.095066, "lat": 25.9513964441577, "lon": 32.7678106261897}]