[{"country_iso": "ROU", "city_id": 3300, "city": "Timi\u0219oara", "pop_total": 232983.727788666, "mass_total": 52608268.3713513, "log_pop": 5.367326, "log_mass": 7.721054, "log_pop_c": 0.265103, "log_mass_c": 0.242855, "lat": 45.7490708868497, "lon": 21.2283247856787}, {"country_iso": "ROU", "city_id": 3301, "city": "Arad", "pop_total": 83652.7845987086, "mass_total": 30891914.4105804, "log_pop": 4.92248, "log_mass": 7.489845, "log_pop_c": -0.179742, "log_mass_c": 0.011646, "lat": 46.180806063191, "lon": 21.321240906778}, {"country_iso": "ROU", "city_id": 3314, "city": "Oradea", "pop_total": 112046.127088324, "mass_total": 37476066.6513965, "log_pop": 5.049397, "log_mass": 7.573754, "log_pop_c": -0.052826, "log_mass_c": 0.095555, "lat": 47.0647176942747, "lon": 21.9245528715645}, {"country_iso": "ROU", "city_id": 3335, "city": "Satu Mare", "pop_total": 51081.7762476192, "mass_total": 17849912.2534547, "log_pop": 4.708266, "log_mass": 7.251636, "log_pop_c": -0.393956, "log_mass_c": -0.226563, "lat": 47.789685064203, "lon": 22.8762662181783}, {"country_iso": "ROU", "city_id": 3356, "city": "Drobeta-Turnu Severin", "pop_total": 60844.4092545762, "mass_total": 16988218.3361856, "log_pop": 4.784221, "log_mass": 7.230148, "log_pop_c": -0.318002, "log_mass_c": -0.248051, "lat": 44.6279477654703, "lon": 22.6412758094594}, {"country_iso": "ROU", "city_id": 3357, "city": "Baia Mare", "pop_total": 63099.6119821062, "mass_total": 20755023.0447286, "log_pop": 4.800027, "log_mass": 7.317123, "log_pop_c": -0.302196, "log_mass_c": -0.161076, "lat": 47.6544285043264, "lon": 23.5698370482151}, {"country_iso": "ROU", "city_id": 3367, "city": "Cluj-Napoca", "pop_total": 208955.023359823, "mass_total": 51730208.8565683, "log_pop": 5.320053, "log_mass": 7.713744, "log_pop_c": 0.21783, "log_mass_c": 0.235545, "lat": 46.7722459124596, "lon": 23.6041041480529}, {"country_iso": "ROU", "city_id": 3385, "city": "Sibiu", "pop_total": 85778.1165361226, "mass_total": 25643297.1936509, "log_pop": 4.933377, "log_mass": 7.408974, "log_pop_c": -0.168846, "log_mass_c": -0.069225, "lat": 45.7926833515688, "lon": 24.1424642560142}, {"country_iso": "ROU", "city_id": 3386, "city": "Craiova", "pop_total": 182562.750819334, "mass_total": 43353357.1559744, "log_pop": 5.261412, "log_mass": 7.637023, "log_pop_c": 0.15919, "log_mass_c": 0.158824, "lat": 44.3189582178777, "lon": 23.7989786476525}, {"country_iso": "ROU", "city_id": 3392, "city": "T\u00e2rgu Mure\u0219", "pop_total": 87106.8926325761, "mass_total": 23185331.5140283, "log_pop": 4.940053, "log_mass": 7.365213, "log_pop_c": -0.16217, "log_mass_c": -0.112985, "lat": 46.5388028974907, "lon": 24.5500931956467}, {"country_iso": "ROU", "city_id": 3411, "city": "Pite\u0219ti", "pop_total": 97517.5193972658, "mass_total": 21736115.5979377, "log_pop": 4.989083, "log_mass": 7.337182, "log_pop_c": -0.11314, "log_mass_c": -0.141017, "lat": 44.8629215933596, "lon": 24.86378012779}, {"country_iso": "ROU", "city_id": 3423, "city": "Brasov", "pop_total": 143516.169833202, "mass_total": 38830551.9753478, "log_pop": 5.156901, "log_mass": 7.589174, "log_pop_c": 0.054678, "log_mass_c": 0.110975, "lat": 45.6510939264407, "lon": 25.608762431856}, {"country_iso": "ROU", "city_id": 3438, "city": "Boto\u0219ani", "pop_total": 65948.5954495846, "mass_total": 15064900.9323238, "log_pop": 4.819206, "log_mass": 7.177966, "log_pop_c": -0.283017, "log_mass_c": -0.300232, "lat": 47.7445910675816, "lon": 26.663780738829}, {"country_iso": "ROU", "city_id": 3442, "city": "Ploie\u0219ti", "pop_total": 144357.092784401, "mass_total": 34956564.398274, "log_pop": 5.159438, "log_mass": 7.543529, "log_pop_c": 0.057216, "log_mass_c": 0.06533, "lat": 44.9383062821217, "lon": 26.0297490848084}, {"country_iso": "ROU", "city_id": 3444, "city": "Bucharest", "pop_total": 1518482.6104931, "mass_total": 269520184.540923, "log_pop": 6.18141, "log_mass": 8.430591, "log_pop_c": 1.079187, "log_mass_c": 0.952393, "lat": 44.435271046132, "lon": 26.1049700622895}, {"country_iso": "ROU", "city_id": 3453, "city": "Bac\u0103u", "pop_total": 90184.0161029362, "mass_total": 25469974.9201889, "log_pop": 4.95513, "log_mass": 7.406029, "log_pop_c": -0.147093, "log_mass_c": -0.07217, "lat": 46.5608928234567, "lon": 26.9155959294093}, {"country_iso": "ROU", "city_id": 3458, "city": "Buz\u0103u", "pop_total": 69296.825354218, "mass_total": 18482523.0038273, "log_pop": 4.840713, "log_mass": 7.266761, "log_pop_c": -0.261509, "log_mass_c": -0.211437, "lat": 45.1507143088672, "lon": 26.8157106791249}, {"country_iso": "ROU", "city_id": 3461, "city": "Ia\u0219i", "pop_total": 185553.938234211, "mass_total": 47692470.8743538, "log_pop": 5.26847, "log_mass": 7.67845, "log_pop_c": 0.166248, "log_mass_c": 0.200251, "lat": 47.1543863743976, "lon": 27.5879677169717}, {"country_iso": "ROU", "city_id": 3464, "city": "Olteni\u021ba", "pop_total": 75982.8210193933, "mass_total": 4278682.64614276, "log_pop": 4.880715, "log_mass": 6.63131, "log_pop_c": -0.221507, "log_mass_c": -0.846889, "lat": 44.0955024874678, "lon": 26.6401844237542}, {"country_iso": "ROU", "city_id": 3482, "city": "C\u0103l\u0103ra\u0219i", "pop_total": 239525.695730761, "mass_total": 20386860.8581263, "log_pop": 5.379352, "log_mass": 7.30935, "log_pop_c": 0.27713, "log_mass_c": -0.168848, "lat": 44.204658864629, "lon": 27.3410836997284}, {"country_iso": "ROU", "city_id": 3490, "city": "Gala\u021bi", "pop_total": 169051.92805015, "mass_total": 55681416.1912567, "log_pop": 5.22802, "log_mass": 7.74571, "log_pop_c": 0.125798, "log_mass_c": 0.267512, "lat": 45.4370690329925, "lon": 28.0197560615936}, {"country_iso": "ROU", "city_id": 3492, "city": "Br\u0103ila", "pop_total": 124587.250164489, "mass_total": 28165357.1267128, "log_pop": 5.095474, "log_mass": 7.449715, "log_pop_c": -0.006749, "log_mass_c": -0.028483, "lat": 45.2761625571599, "lon": 27.9583063916608}, {"country_iso": "ROU", "city_id": 3533, "city": "Constan\u021ba", "pop_total": 204453.08338474, "mass_total": 53001660.3548705, "log_pop": 5.310594, "log_mass": 7.724289, "log_pop_c": 0.208371, "log_mass_c": 0.246091, "lat": 44.1885813643351, "lon": 28.6257685886569}]