[{"country_iso": "TUR", "city_id": 3481, "city": "Edirne", "pop_total": 50044.1952203732, "mass_total": 16310559.0089056, "log_pop": 4.699354, "log_mass": 7.212469, "log_pop_c": -0.56991, "log_mass_c": -0.37796, "lat": 41.6732766982086, "lon": 26.5672211178841}, {"country_iso": "TUR", "city_id": 3524, "city": "Tekirda\u011f", "pop_total": 54969.0182014933, "mass_total": 17577202.6490469, "log_pop": 4.740118, "log_mass": 7.24495, "log_pop_c": -0.529146, "log_mass_c": -0.345479, "lat": 40.9748293144158, "lon": 27.5252723499469}, {"country_iso": "TUR", "city_id": 3528, "city": "Izmir", "pop_total": 1855139.58942796, "mass_total": 269007358.759041, "log_pop": 6.268377, "log_mass": 8.429764, "log_pop_c": 0.999113, "log_mass_c": 0.839335, "lat": 38.4247897360095, "lon": 27.139083330354}, {"country_iso": "TUR", "city_id": 3540, "city": "Kapakl\u0131", "pop_total": 133807.272132155, "mass_total": 28651900.9458904, "log_pop": 5.12648, "log_mass": 7.457153, "log_pop_c": -0.142784, "log_mass_c": -0.133276, "lat": 41.3006548148233, "lon": 27.9845015793194}, {"country_iso": "TUR", "city_id": 3542, "city": "Manisa", "pop_total": 170310.673590611, "mass_total": 33372833.6791067, "log_pop": 5.231242, "log_mass": 7.523393, "log_pop_c": -0.038022, "log_mass_c": -0.067036, "lat": 38.6233772871855, "lon": 27.3887179237845}, {"country_iso": "TUR", "city_id": 3550, "city": "Bal\u0131kesir", "pop_total": 126352.872103285, "mass_total": 27156171.9728506, "log_pop": 5.101585, "log_mass": 7.433869, "log_pop_c": -0.167679, "log_mass_c": -0.156561, "lat": 39.6510469931461, "lon": 27.8961052744795}, {"country_iso": "TUR", "city_id": 3553, "city": "Turgutlu", "pop_total": 68639.2477906358, "mass_total": 14032943.4397271, "log_pop": 4.836573, "log_mass": 7.147149, "log_pop_c": -0.432691, "log_mass_c": -0.44328, "lat": 38.4929544314222, "lon": 27.693203354292}, {"country_iso": "TUR", "city_id": 3562, "city": "Istanbul", "pop_total": 10827885.960314, "mass_total": 1333054083.52556, "log_pop": 7.034544, "log_mass": 9.124848, "log_pop_c": 1.76528, "log_mass_c": 1.534419, "lat": 40.995339767533, "lon": 29.0311378631759}, {"country_iso": "TUR", "city_id": 3567, "city": "Aydin", "pop_total": 111120.208233571, "mass_total": 24245075.784206, "log_pop": 5.045793, "log_mass": 7.384624, "log_pop_c": -0.223471, "log_mass_c": -0.205806, "lat": 37.8367191088139, "lon": 27.8437756094151}, {"country_iso": "TUR", "city_id": 3569, "city": "Arnavutk\u00f6y", "pop_total": 79303.6460097575, "mass_total": 14070699.7852286, "log_pop": 4.899293, "log_mass": 7.148316, "log_pop_c": -0.369971, "log_mass_c": -0.442114, "lat": 41.1947446571807, "lon": 28.7383742536758}, {"country_iso": "TUR", "city_id": 3589, "city": "Bursa", "pop_total": 1122196.55706053, "mass_total": 173900061.365199, "log_pop": 6.050069, "log_mass": 8.2403, "log_pop_c": 0.780805, "log_mass_c": 0.649871, "lat": 40.2202946555267, "lon": 29.0488653624477}, {"country_iso": "TUR", "city_id": 3600, "city": "Yalova", "pop_total": 63644.8085769102, "mass_total": 15886596.7460742, "log_pop": 4.803763, "log_mass": 7.201031, "log_pop_c": -0.465501, "log_mass_c": -0.389398, "lat": 40.6496805751273, "lon": 29.2766774092929}, {"country_iso": "TUR", "city_id": 3618, "city": "\u0130neg\u00f6l", "pop_total": 76514.7901926939, "mass_total": 18361476.8051899, "log_pop": 4.883745, "log_mass": 7.263908, "log_pop_c": -0.385518, "log_mass_c": -0.326522, "lat": 40.0923825402251, "lon": 29.4987820425038}, {"country_iso": "TUR", "city_id": 3619, "city": "\u0130zmit", "pop_total": 340706.241667813, "mass_total": 84538408.730456, "log_pop": 5.53238, "log_mass": 7.927054, "log_pop_c": 0.263116, "log_mass_c": 0.336625, "lat": 40.7617627862528, "lon": 29.8958130005796}, {"country_iso": "TUR", "city_id": 3620, "city": "G\u00f6lc\u00fck", "pop_total": 92739.7678055801, "mass_total": 21176386.209952, "log_pop": 4.967266, "log_mass": 7.325852, "log_pop_c": -0.301998, "log_mass_c": -0.264577, "lat": 40.7131545660557, "lon": 29.8416420685256}, {"country_iso": "TUR", "city_id": 3623, "city": "Denizli", "pop_total": 310330.322985824, "mass_total": 60448493.7424857, "log_pop": 5.491824, "log_mass": 7.781385, "log_pop_c": 0.222561, "log_mass_c": 0.190956, "lat": 37.784667201433, "lon": 29.07363632809}, {"country_iso": "TUR", "city_id": 3628, "city": "U\u015fak", "pop_total": 70662.1570190112, "mass_total": 17151071.6882497, "log_pop": 4.849187, "log_mass": 7.234291, "log_pop_c": -0.420077, "log_mass_c": -0.356138, "lat": 38.6688398358464, "lon": 29.4083432135569}, {"country_iso": "TUR", "city_id": 3643, "city": "K\u00fctahya", "pop_total": 65345.0603781363, "mass_total": 15145218.136509, "log_pop": 4.815213, "log_mass": 7.180276, "log_pop_c": -0.454051, "log_mass_c": -0.410154, "lat": 39.4167978291699, "lon": 29.9968785237975}, {"country_iso": "TUR", "city_id": 3647, "city": "Sakarya [Adapazar\u0131]", "pop_total": 100826.222684087, "mass_total": 48817547.6239353, "log_pop": 5.003573, "log_mass": 7.688576, "log_pop_c": -0.26569, "log_mass_c": 0.098147, "lat": 40.7611140782709, "lon": 30.4099214341181}, {"country_iso": "TUR", "city_id": 3661, "city": "Eskisehir", "pop_total": 301884.3474877, "mass_total": 69036824.7053002, "log_pop": 5.479841, "log_mass": 7.839081, "log_pop_c": 0.210577, "log_mass_c": 0.248652, "lat": 39.7647351067733, "lon": 30.544405148002}, {"country_iso": "TUR", "city_id": 3686, "city": "Afyonkarahisar", "pop_total": 54173.4357663379, "mass_total": 16782622.6827211, "log_pop": 4.733786, "log_mass": 7.22486, "log_pop_c": -0.535477, "log_mass_c": -0.365569, "lat": 38.7557474624078, "lon": 30.5560788302764}, {"country_iso": "TUR", "city_id": 3688, "city": "D\u00fczce", "pop_total": 50360.3148915571, "mass_total": 12429146.5192016, "log_pop": 4.702088, "log_mass": 7.094441, "log_pop_c": -0.567175, "log_mass_c": -0.495988, "lat": 40.8464542880661, "lon": 31.1586093132063}, {"country_iso": "TUR", "city_id": 3708, "city": "Isparta", "pop_total": 105616.355225645, "mass_total": 17647900.6986908, "log_pop": 5.023731, "log_mass": 7.246693, "log_pop_c": -0.245533, "log_mass_c": -0.343736, "lat": 37.7706577544309, "lon": 30.5502251447223}, {"country_iso": "TUR", "city_id": 3729, "city": "Antalya", "pop_total": 474690.81436942, "mass_total": 140258625.3292, "log_pop": 5.676411, "log_mass": 8.14693, "log_pop_c": 0.407147, "log_mass_c": 0.5565, "lat": 36.9173613349588, "lon": 30.725085884773}, {"country_iso": "TUR", "city_id": 3795, "city": "Sincan", "pop_total": 660509.690765476, "mass_total": 87489593.373988, "log_pop": 5.819879, "log_mass": 7.941956, "log_pop_c": 0.550615, "log_mass_c": 0.351527, "lat": 39.9465138608643, "lon": 32.6107729233045}, {"country_iso": "TUR", "city_id": 3809, "city": "Ankara", "pop_total": 1698239.90013556, "mass_total": 297741007.074285, "log_pop": 6.229999, "log_mass": 8.473839, "log_pop_c": 0.960735, "log_mass_c": 0.883409, "lat": 39.9521636623586, "lon": 32.846720935743}, {"country_iso": "TUR", "city_id": 3843, "city": "Konya", "pop_total": 299620.007734775, "mass_total": 88042008.0290268, "log_pop": 5.476571, "log_mass": 7.94469, "log_pop_c": 0.207307, "log_mass_c": 0.354261, "lat": 37.8695081466043, "lon": 32.4935854573026}, {"country_iso": "TUR", "city_id": 4182, "city": "Mersin", "pop_total": 411219.183935399, "mass_total": 86961835.9288612, "log_pop": 5.614073, "log_mass": 7.939329, "log_pop_c": 0.34481, "log_mass_c": 0.348899, "lat": 36.8013815267882, "lon": 34.6147797288213}, {"country_iso": "TUR", "city_id": 4207, "city": "Samsun", "pop_total": 284929.008252949, "mass_total": 52792830.3222033, "log_pop": 5.454737, "log_mass": 7.722575, "log_pop_c": 0.185473, "log_mass_c": 0.132146, "lat": 41.3122571092145, "lon": 36.297957941054}, {"country_iso": "TUR", "city_id": 4214, "city": "Tarsus", "pop_total": 89045.5620844486, "mass_total": 22789252.8941731, "log_pop": 4.949612, "log_mass": 7.35773, "log_pop_c": -0.319651, "log_mass_c": -0.232699, "lat": 36.9233392981459, "lon": 34.8954153620768}, {"country_iso": "TUR", "city_id": 4216, "city": "Kayseri", "pop_total": 235159.587061977, "mass_total": 42783576.6343921, "log_pop": 5.371363, "log_mass": 7.631277, "log_pop_c": 0.102099, "log_mass_c": 0.040848, "lat": 38.7395346624814, "lon": 35.5244229628048}, {"country_iso": "TUR", "city_id": 4237, "city": "Adana", "pop_total": 417132.456673983, "mass_total": 116428596.013046, "log_pop": 5.620274, "log_mass": 8.06606, "log_pop_c": 0.35101, "log_mass_c": 0.47563, "lat": 37.0034352773671, "lon": 35.2831387803165}, {"country_iso": "TUR", "city_id": 4315, "city": "Sivas", "pop_total": 123286.356554379, "mass_total": 22796804.2496839, "log_pop": 5.090915, "log_mass": 7.357874, "log_pop_c": -0.178349, "log_mass_c": -0.232555, "lat": 39.7464907506428, "lon": 37.0126157147158}, {"country_iso": "TUR", "city_id": 4325, "city": "Osmaniye", "pop_total": 116391.632506489, "mass_total": 18529639.3184701, "log_pop": 5.065922, "log_mass": 7.267867, "log_pop_c": -0.203342, "log_mass_c": -0.322562, "lat": 37.0668494255003, "lon": 36.2488884913722}, {"country_iso": "TUR", "city_id": 4328, "city": "\u0130skenderun", "pop_total": 119491.589049807, "mass_total": 25966691.9648603, "log_pop": 5.077337, "log_mass": 7.414417, "log_pop_c": -0.191926, "log_mass_c": -0.176013, "lat": 36.5781231729092, "lon": 36.1639841956936}, {"country_iso": "TUR", "city_id": 4339, "city": "Antakya", "pop_total": 159305.177379604, "mass_total": 33031888.0665798, "log_pop": 5.20223, "log_mass": 7.518933, "log_pop_c": -0.067034, "log_mass_c": -0.071496, "lat": 36.2206654004025, "lon": 36.1608932477483}, {"country_iso": "TUR", "city_id": 4365, "city": "Ordu", "pop_total": 79955.7339153439, "mass_total": 16504255.1436018, "log_pop": 4.90285, "log_mass": 7.217596, "log_pop_c": -0.366414, "log_mass_c": -0.372833, "lat": 40.9712279586427, "lon": 37.9114570508225}, {"country_iso": "TUR", "city_id": 4372, "city": "Kahramanmara\u015f", "pop_total": 219604.75228655, "mass_total": 44657364.1011532, "log_pop": 5.341642, "log_mass": 7.649893, "log_pop_c": 0.072378, "log_mass_c": 0.059464, "lat": 37.5645119822085, "lon": 36.928748761575}, {"country_iso": "TUR", "city_id": 4424, "city": "Gaziantep", "pop_total": 693859.269550021, "mass_total": 96943254.9848013, "log_pop": 5.841271, "log_mass": 7.986518, "log_pop_c": 0.572008, "log_mass_c": 0.396088, "lat": 37.0501635175092, "lon": 37.3827322381334}, {"country_iso": "TUR", "city_id": 4463, "city": "Malatya", "pop_total": 87779.2669665766, "mass_total": 20599137.8930135, "log_pop": 4.943392, "log_mass": 7.313849, "log_pop_c": -0.325872, "log_mass_c": -0.27658, "lat": 38.3506455640703, "lon": 38.2808388681275}, {"country_iso": "TUR", "city_id": 4486, "city": "Adiyaman", "pop_total": 82874.8839228331, "mass_total": 21046753.4240867, "log_pop": 4.918423, "log_mass": 7.323185, "log_pop_c": -0.350841, "log_mass_c": -0.267244, "lat": 37.7611164692117, "lon": 38.2622901205252}, {"country_iso": "TUR", "city_id": 4504, "city": "Trabzon", "pop_total": 131627.350325852, "mass_total": 27101552.0525937, "log_pop": 5.119346, "log_mass": 7.432994, "log_pop_c": -0.149918, "log_mass_c": -0.157435, "lat": 40.992672664449, "lon": 39.7371712925612}, {"country_iso": "TUR", "city_id": 4531, "city": "\u015eanl\u0131urfa", "pop_total": 253066.71354142, "mass_total": 40658416.791947, "log_pop": 5.403235, "log_mass": 7.60915, "log_pop_c": 0.133971, "log_mass_c": 0.018721, "lat": 37.1551416611885, "lon": 38.806263072943}, {"country_iso": "TUR", "city_id": 4599, "city": "Diyarbakir", "pop_total": 228644.707180421, "mass_total": 39393923.1730358, "log_pop": 5.359161, "log_mass": 7.595429, "log_pop_c": 0.089897, "log_mass_c": 0.005, "lat": 37.9314792982295, "lon": 40.1992168778255}, {"country_iso": "TUR", "city_id": 4666, "city": "Batman", "pop_total": 190745.466525042, "mass_total": 25718904.4022143, "log_pop": 5.280454, "log_mass": 7.410252, "log_pop_c": 0.011191, "log_mass_c": -0.180177, "lat": 37.8895682043889, "lon": 41.1331357181517}, {"country_iso": "TUR", "city_id": 4899, "city": "Van", "pop_total": 202865.573388885, "mass_total": 30417234.587956, "log_pop": 5.307208, "log_mass": 7.48312, "log_pop_c": 0.037945, "log_mass_c": -0.107309, "lat": 38.5090705295712, "lon": 43.3826538448103}]