[{"country_iso": "UZB", "city_id": 5897, "city": "Urgench", "pop_total": 52908.771190144, "mass_total": 30462963.4044032, "log_pop": 4.723528, "log_mass": 7.483772, "log_pop_c": -0.33098, "log_mass_c": -0.40479, "lat": 41.5558389167301, "lon": 60.6140747649345}, {"country_iso": "UZB", "city_id": 5980, "city": "Qarshi", "pop_total": 60752.7364670332, "mass_total": 53155911.2644599, "log_pop": 4.783566, "log_mass": 7.725552, "log_pop_c": -0.270941, "log_mass_c": -0.16301, "lat": 38.8346481151103, "lon": 65.7640038796219}, {"country_iso": "UZB", "city_id": 5991, "city": "Samarkand", "pop_total": 184035.554942257, "mass_total": 141649871.247951, "log_pop": 5.264902, "log_mass": 8.151216, "log_pop_c": 0.210395, "log_mass_c": 0.262654, "lat": 39.6456766900202, "lon": 66.9588046256059}, {"country_iso": "UZB", "city_id": 6008, "city": "Tashkent", "pop_total": 724998.63971982, "mass_total": 374540486.498313, "log_pop": 5.860337, "log_mass": 8.573499, "log_pop_c": 0.80583, "log_mass_c": 0.684937, "lat": 41.2698464175211, "lon": 69.2558898701588}, {"country_iso": "UZB", "city_id": 6023, "city": "Termez", "pop_total": 52111.8384372973, "mass_total": 24927581.6297168, "log_pop": 4.716936, "log_mass": 7.39668, "log_pop_c": -0.337571, "log_mass_c": -0.491882, "lat": 37.245623425373, "lon": 67.2943167687131}, {"country_iso": "UZB", "city_id": 6065, "city": "Kokand", "pop_total": 60616.4338463596, "mass_total": 42786017.4790414, "log_pop": 4.78259, "log_mass": 7.631302, "log_pop_c": -0.271917, "log_mass_c": -0.25726, "lat": 40.5382735457208, "lon": 70.9352945229417}, {"country_iso": "UZB", "city_id": 6080, "city": "Namangan", "pop_total": 139545.547016097, "mass_total": 115938000.866747, "log_pop": 5.144716, "log_mass": 8.064226, "log_pop_c": 0.090209, "log_mass_c": 0.175664, "lat": 40.9923108083111, "lon": 71.6800223242053}, {"country_iso": "UZB", "city_id": 6094, "city": "Fergana", "pop_total": 133555.23515699, "mass_total": 100891066.973909, "log_pop": 5.125661, "log_mass": 8.003853, "log_pop_c": 0.071154, "log_mass_c": 0.115291, "lat": 40.4398874354645, "lon": 71.7515488219363}, {"country_iso": "UZB", "city_id": 6107, "city": "Andijan", "pop_total": 122554.295586311, "mass_total": 92674121.9977956, "log_pop": 5.088329, "log_mass": 7.966958, "log_pop_c": 0.033821, "log_mass_c": 0.078397, "lat": 40.7824134889055, "lon": 72.3347876675334}]