[{"country_iso": "SYR", "city_id": 4317, "city": "Latakia", "pop_total": 262270.680559439, "mass_total": 33610481.4963943, "log_pop": 5.41875, "log_mass": 7.526475, "log_pop_c": 0.094266, "log_mass_c": -0.048373, "lat": 35.5424128417818, "lon": 35.7919727600195}, {"country_iso": "SYR", "city_id": 4353, "city": "Tartus", "pop_total": 58632.3730093563, "mass_total": 15269034.6696847, "log_pop": 4.768137, "log_mass": 7.183812, "log_pop_c": -0.556346, "log_mass_c": -0.391036, "lat": 34.8915269585572, "lon": 35.8959053033363}, {"country_iso": "SYR", "city_id": 4407, "city": "Damascus", "pop_total": 2211226.3852076, "mass_total": 181681342.77836, "log_pop": 6.344633, "log_mass": 8.25931, "log_pop_c": 1.02015, "log_mass_c": 0.684462, "lat": 33.5007487084128, "lon": 36.3132398116839}, {"country_iso": "SYR", "city_id": 4417, "city": "Aleppo", "pop_total": 1329531.17667753, "mass_total": 136997457.095655, "log_pop": 6.123699, "log_mass": 8.136713, "log_pop_c": 0.799215, "log_mass_c": 0.561864, "lat": 36.2043048415405, "lon": 37.1462467494934}, {"country_iso": "SYR", "city_id": 4420, "city": "Hama", "pop_total": 97083.451097552, "mass_total": 27830090.3547113, "log_pop": 4.987145, "log_mass": 7.444515, "log_pop_c": -0.337338, "log_mass_c": -0.130333, "lat": 35.138450919737, "lon": 36.7525847862574}, {"country_iso": "SYR", "city_id": 4426, "city": "Homs", "pop_total": 306502.96224608, "mass_total": 49225594.0550555, "log_pop": 5.486435, "log_mass": 7.692191, "log_pop_c": 0.161951, "log_mass_c": 0.117343, "lat": 34.7232108773029, "lon": 36.7158305038078}, {"country_iso": "SYR", "city_id": 4564, "city": "Ar Raqqah", "pop_total": 75696.4210848603, "mass_total": 23329942.4041528, "log_pop": 4.879075, "log_mass": 7.367914, "log_pop_c": -0.445408, "log_mass_c": -0.206934, "lat": 35.9528780916323, "lon": 39.0093211123118}, {"country_iso": "SYR", "city_id": 4672, "city": "Al-Hasakah", "pop_total": 88571.4736218743, "mass_total": 17008547.8003909, "log_pop": 4.947294, "log_mass": 7.230667, "log_pop_c": -0.37719, "log_mass_c": -0.344181, "lat": 36.5088854364669, "lon": 40.7439112383016}, {"country_iso": "SYR", "city_id": 4700, "city": "Qamishli", "pop_total": 92296.0988691536, "mass_total": 21480112.7760496, "log_pop": 4.965183, "log_mass": 7.332037, "log_pop_c": -0.3593, "log_mass_c": -0.242811, "lat": 37.0628212274705, "lon": 41.2290596526466}]